"eGRID2018.Plant.file.sequence.number","Data.Year","Plant.state.abbreviation","Plant.name","DOE.EIA.ORIS.plant.or.facility.code","Utility.name","Utility.ID","Plant.county.name","Plant.latitude","Plant.longitude","Number.of.units","Plant.primary.coal.oil.gas..other.fossil.fuel.category"
"1","2018","AK","7-Mile Ridge Wind Project","60814","Alaska Power and Telephone Co","219","Southeast Fairbanks","63.210689","-143.247156","1","WIND"
"2","2018","AK","Agrium Kenai Nitrogen Operations","54452","Agrium US Inc","179","Kenai Peninsula","60.6732","-151.3784","12","GAS"
"3","2018","AK","Alakanuk","57053","Alaska Village Elec Coop, Inc","221","Wade Hampton","62.6833","-164.6544","5","OIL"
"4","2018","AK","Allison Creek Hydro","58982","Copper Valley Elec Assn, Inc","4329","Valdez Cordova","61.084444","-146.353333","1","HYDRO"
"5","2018","AK","Ambler","60243","Alaska Village Elec Coop, Inc","221","Northwest Arctic","67.08798","-157.856719","3","OIL"
"6","2018","AK","Anchorage 1","75","Anchorage Municipal Light and Power","599","Anchorage","61.2221","-149.8661","8","GAS"
"7","2018","AK","Angoon","7462","Inside Passage Elec Coop, Inc","18963","Hoonah-Angoon","57.499166","-134.58614","4","OIL"
"8","2018","AK","Aniak","7182","Aniak Light & Power Co Inc","4959","Bethel","61.580678","-159.535643","6","OIL"
"9","2018","AK","Annex Creek","62","Alaska Electric Light&Power Co","213","Juneau","58.3176","-134.101","2","HYDRO"
"10","2018","AK","Auke Bay","7250","Alaska Electric Light&Power Co","213","Juneau","58.3875","-134.6446","3","OIL"
"11","2018","AK","Aurora Energy LLC Chena","79","Aurora Energy LLC","986","Fairbanks North Star","64.847743","-147.735063","4","COAL"
"12","2018","AK","Barrow","7173","Barrow Utils & Elec Coop, Inc","1276","North Slope","71.292","-156.7786","7","GAS"
"13","2018","AK","Battery Energy Storage System","57583","Golden Valley Elec Assn Inc","7353","Fairbanks North Star","64.8167","-147.725","1","OTHF"
"14","2018","AK","Beaver Falls","6580","Ketchikan Public Utilities","10210","Ketchikan Gateway","55.37975","-131.470269","3","HYDRO"
"15","2018","AK","Beluga","96","Chugach Electric Assn Inc","3522","Kenai Peninsula","61.1861","-151.0356","7","GAS"
"16","2018","AK","Bernice Lake","6292","Homer Electric Assn Inc","19558","Kenai Peninsula","60.6935","-151.3874","3","GAS"
"17","2018","AK","Bethel","6566","Alaska Village Elec Coop, Inc","221","Bethel","60.7897","-161.787778","6","OIL"
"18","2018","AK","Black Bear Lake","7752","Alaska Power and Telephone Co","219","Prince of Wales-Hyder","55.476472","-133.14772","1","HYDRO"
"19","2018","AK","Blue Lake Hydro","93","City & Borough of Sitka - (AK)","17271","Sitka","57.0516","-135.2297","5","HYDRO"
"20","2018","AK","Bradley Lake","7367","Homer Electric Assn Inc","19558","Kenai Peninsula","59.77862","-150.94015","2","HYDRO"
"21","2018","AK","Brevig Mission","60260","Alaska Village Elec Coop, Inc","221","Nome","65.331716","-166.479506","4","OIL"
"22","2018","AK","Centennial","7112","Metlakatla Power & Light","12385","Prince of Wales-Hyder","55.121433","-131.560267","2","OIL"
"23","2018","AK","Chester Lake","7168","Metlakatla Power & Light","12385","Prince of Wales-Hyder","55.116879","-131.545879","1","HYDRO"
"24","2018","AK","Chevak","6311","Alaska Village Elec Coop, Inc","221","Bethel","61.525297","-165.590152","6","OIL"
"25","2018","AK","Cooper Lake","6291","Chugach Electric Assn Inc","3522","Kenai Peninsula","60.392331","-149.665603","2","HYDRO"
"26","2018","AK","Craig (AK)","421","Alaska Power and Telephone Co","219","Prince of Wales-Hyder","55.47691","-133.14869","5","OIL"
"27","2018","AK","Delta Power","56325","Golden Valley Elec Assn Inc","7353","Southeast Fairbanks","64.028056","-145.719444","1","OIL"
"28","2018","AK","Delta Wind Farm","58511","Alaska Environmental Power","58488","Southeast Fairbanks","64.013889","-145.596667","3","WIND"
"29","2018","AK","Dillingham","109","Nushagak Electric Coop, Inc","13870","Dillingham","59.042914","-158.468597","13","OIL"
"30","2018","AK","Dutch Harbor","7502","City of Unalaska - (AK)","19454","Aleutians West","53.892459","-166.538185","13","OIL"
"31","2018","AK","Eielson AFB Central Heat & Power Plant","50392","U S Air Force-Eielson AFB","22199","Fairbanks North Star","64.67141","-147.075988","12","COAL"
"32","2018","AK","Eklutna Generation Station","58989","Matanuska Electric Assn Inc","11824","Anchorage","61.457778","-149.351389","10","GAS"
"33","2018","AK","Eklutna Hydro Project","77","Anchorage Municipal Light and Power","599","Matanuska Susitna","61.475211","-149.15009","2","HYDRO"
"34","2018","AK","Elim","57060","Alaska Village Elec Coop, Inc","221","Nome","64.616558","-162.263717","3","OIL"
"35","2018","AK","Emmonak","6314","Alaska Village Elec Coop, Inc","221","Wade Hampton","62.777694","-164.531517","8","OIL"
"36","2018","AK","ESS Battery Microgrid","58405","Kodiak Electric Assn Inc","10433","Kodiak Island","57.799167","-152.404167","1","OTHF"
"37","2018","AK","Eva Creek Wind","57935","Golden Valley Elec Assn Inc","7353","Denali","64.058333","-148.9","1","WIND"
"38","2018","AK","Eyak Service Center BESS","62714","Cordova Electric Coop, Inc","40215","Valdez Cordova","60.54047","-145.74079","1","OTHF"
"39","2018","AK","Fairbanks","6286","Golden Valley Elec Assn Inc","7353","Fairbanks North Star","64.854171","-147.719351","4","OIL"
"40","2018","AK","False Island","56146","Alaska Power and Telephone Co","219","Prince of Wales-Hyder","55.48918","-133.1345","2","OIL"
"41","2018","AK","Fire Island Wind","58425","Fire Island Wind LLC","58422","Anchorage","61.13","-150.243611","1","WIND"
"42","2018","AK","Flywheel Energy Storage System Microgrid","60563","Kodiak Electric Assn Inc","10433","Kodiak Island","57.780114","-152.443783","1","OTHF"
"43","2018","AK","Fort Greely Power Plant","54834","Doyon Utilities - Fort Greely","19272","Southeast Fairbanks","63.973572","-145.716581","7","OIL"
"44","2018","AK","Galena Electric Utility","7437","Galena Electric Utility","6915","Yukon Koyukuk","64.74417","-156.8736","11","OIL"
"45","2018","AK","Gambell","57062","Alaska Village Elec Coop, Inc","221","Nome","63.777058","-171.712439","4","OIL"
"46","2018","AK","George M Sullivan Generation Plant 2","6559","Anchorage Municipal Light and Power","599","Anchorage","61.229713","-149.716744","8","GAS"
"47","2018","AK","Glennallen","6305","Copper Valley Elec Assn, Inc","4329","Valdez Cordova","62.110415","-145.532529","9","OIL"
"48","2018","AK","Goat Lake Hydro","7751","Alaska Power and Telephone Co","219","Skagway","59.5357","-135.2123","1","HYDRO"
"49","2018","AK","Gold Creek","63","Alaska Electric Light&Power Co","213","Juneau","58.3107","-134.4174","8","HYDRO"
"50","2018","AK","Green Lake","313","City & Borough of Sitka - (AK)","17271","Sitka","56.986284","-135.12275","2","HYDRO"
"51","2018","AK","Gwitchyaa Zhee","7174","Gwitchyaa Zhee Utility Co","7833","Yukon Koyukuk","66.566287","-145.253052","10","OIL"
"52","2018","AK","Haines","69","Alaska Power and Telephone Co","219","Haines","59.235931","-135.446228","6","OIL"
"53","2018","AK","Healy","6288","Golden Valley Elec Assn Inc","7353","Denali","63.8542","-148.95","3","COAL"
"54","2018","AK","Hiilangaay Hydro","59037","Haida Energy, Inc.","60222","Prince of Wales-Hyder","55.216389","-132.603611","1","HYDRO"
"55","2018","AK","Hoonah","7463","Inside Passage Elec Coop, Inc","18963","Hoonah-Angoon","58.106432","-135.43074","5","OIL"
"56","2018","AK","Hooper Bay","6319","Alaska Village Elec Coop, Inc","221","Bethel","61.530858","-166.101944","7","OIL"
"57","2018","AK","Humpback Creek","7042","Cordova Electric Coop, Inc","40215","Valdez Cordova","60.612822","-145.679411","3","HYDRO"
"58","2018","AK","Hydaburg","423","Alaska Power and Telephone Co","219","Prince of Wales-Hyder","55.204937","-132.821435","3","OIL"
"59","2018","AK","Industrial Plant","59793","Alaska Electric Light&Power Co","213","Juneau","58.367635","-134.60802","1","OIL"
"60","2018","AK","International","6293","Chugach Electric Assn Inc","3522","Anchorage","61.168972","-149.911038","3","GAS"
"61","2018","AK","Jarvis Street","6801","City & Borough of Sitka - (AK)","17271","Sitka","57.0497","-135.3128","5","OIL"
"62","2018","AK","JBER Landfill Gas Power Plant","58380","Doyon Utilities, LLC","58368","Anchorage","61.286","-149.61","5","BIOMASS"
"63","2018","AK","Kake","7464","Inside Passage Elec Coop, Inc","18963","Petersburg","56.962983","-133.922557","8","OIL"
"64","2018","AK","Kasidaya Creek Hydro","56542","Alaska Power and Telephone Co","219","Skagway","59.4072","-135.3408","1","HYDRO"
"65","2018","AK","Kasigluk","57066","Alaska Village Elec Coop, Inc","221","Bethel","60.8731","-162.5197","4","OIL"
"66","2018","AK","Ketchikan","84","Ketchikan Public Utilities","10210","Ketchikan Gateway","55.344641","-131.633425","3","HYDRO"
"67","2018","AK","Kiana","6323","Alaska Village Elec Coop, Inc","221","Northwest Arctic","66.973889","-160.428592","5","OIL"
"68","2018","AK","King Cove","7493","City of King Cove","9897","Aleutians East","55.061683","-162.3103","5","HYDRO"
"69","2018","AK","Kivalina","57065","Alaska Village Elec Coop, Inc","221","Northwest Arctic","67.726644","-164.538447","4","OIL"
"70","2018","AK","Klawock","7466","Inside Passage Elec Coop, Inc","18963","Prince of Wales-Hyder","55.557778","-132.981389","4","OIL"
"71","2018","AK","Klawock Power Generation Station","61684","Alaska Power and Telephone Co","219","Prince of Wales-Hyder","55.553197","-133.08535","1","OIL"
"72","2018","AK","Kodiak Microgrid","6281","Kodiak Electric Assn Inc","10433","Kodiak Island","57.789956","-152.396982","10","OIL"
"73","2018","AK","Kotlik","57064","Alaska Village Elec Coop, Inc","221","Wade Hampton","63.03215","-163.553106","4","OIL"
"74","2018","AK","Kotzebue","6304","Kotzebue Electric Assn Inc","10451","Northwest Arctic","66.837778","-162.556944","29","OIL"
"75","2018","AK","Koyuk","57059","Alaska Village Elec Coop, Inc","221","Nome","64.932089","-161.167103","3","OIL"
"76","2018","AK","Lake Dorothy Hydroelectric Project","57085","Alaska Electric Light&Power Co","213","Juneau","58.2325","-134.0533","1","HYDRO"
"77","2018","AK","Lemon Creek","64","Alaska Electric Light&Power Co","213","Juneau","58.3536","-134.4953","11","OIL"
"78","2018","AK","Mahoney Lake Hydroelectric","59027","Ketchikan Electric Company","60223","Ketchikan Gateway","55.419444","-131.537778","1","HYDRO"
"79","2018","AK","Marshall","60244","Alaska Village Elec Coop, Inc","221","Wade Hampton","61.878186","-162.085147","3","OIL"
"80","2018","AK","McGrath","6555","McGrath Light & Power Co","12119","Yukon Koyukuk","62.95699","-155.594997","7","OIL"
"81","2018","AK","Mountain Village","6329","Alaska Village Elec Coop, Inc","221","Bethel","62.085569","-163.729072","7","OIL"
"82","2018","AK","Naknek","6301","Naknek Electric Assn, Inc","13201","Bristol Bay","58.730417","-157.007222","15","OIL"
"83","2018","AK","New Stuyahok","60245","Alaska Village Elec Coop, Inc","221","Dillingham","59.448358","-157.325528","3","OIL"
"84","2018","AK","Newhalen","7183","I-N-N Electric Coop, Inc","9188","Lake and Peninsula","59.899054","-154.698735","9","HYDRO"
"85","2018","AK","Nikiski Co-Generation","55966","Homer Electric Assn Inc","19558","Kenai Peninsula","60.676539","-151.377713","2","GAS"
"86","2018","AK","Noatak","57051","Alaska Village Elec Coop, Inc","221","Northwest Arctic","67.570931","-162.965728","4","OIL"
"87","2018","AK","Noorvik","6330","Alaska Village Elec Coop, Inc","221","Northwest Arctic","66.834519","-161.038717","5","OIL"
"88","2018","AK","North Pole","6285","Golden Valley Elec Assn Inc","7353","Fairbanks North Star","64.7356","-147.3481","4","OIL"
"89","2018","AK","Northway","7169","Alaska Power and Telephone Co","219","Southeast Fairbanks","62.9617","-141.9372","4","OIL"
"90","2018","AK","NSB Anaktuvuk Pass","7487","North Slope Borough Power & Light","26616","North Slope","68.13795","-151.741017","7","OIL"
"91","2018","AK","NSB Atqasuk Utility","7482","North Slope Borough Power & Light","26616","North Slope","70.4826","-157.4252","6","OIL"
"92","2018","AK","NSB Kaktovik Utility","7483","North Slope Borough Power & Light","26616","North Slope","70.125617","-143.619033","4","OIL"
"93","2018","AK","NSB Nuiqsut Utility","7484","North Slope Borough Power & Light","26616","North Slope","70.220565","-150.993492","7","OIL"
"94","2018","AK","NSB Point Hope Utility","7485","North Slope Borough Power & Light","26616","North Slope","68.348424","-166.737211","9","OIL"
"95","2018","AK","NSB Point Lay Utility","7486","North Slope Borough Power & Light","26616","North Slope","69.740833","-163.005833","12","OIL"
"96","2018","AK","NSB Wainwright Utility","7488","North Slope Borough Power & Light","26616","North Slope","70.642877","-160.020461","6","OIL"
"97","2018","AK","Nunapitchuk","6333","Alaska Village Elec Coop, Inc","221","Bethel","60.89588","-162.459756","5","OIL"
"98","2018","AK","Nymans Plant Microgrid","7723","Kodiak Electric Assn Inc","10433","Kodiak Island","57.731608","-152.507044","2","OIL"
"99","2018","AK","Orca","789","Cordova Electric Coop, Inc","40215","Valdez Cordova","60.555889","-145.752983","7","OIL"
"100","2018","AK","Pelican","6702","Pelican Utility","29297","Hoonah-Angoon","57.957197","-136.220095","10","HYDRO"
"101","2018","AK","Petersburg","91","Petersburg Borough - (AK)","14856","Petersburg","56.81104","-132.957091","9","HYDRO"
"102","2018","AK","Pillar Mountain Wind Project Microgrid","57187","Kodiak Electric Assn Inc","10433","Kodiak Island","57.7869","-152.4406","2","WIND"
"103","2018","AK","Pilot Station","57058","Alaska Village Elec Coop, Inc","221","Wade Hampton","61.936456","-162.880706","4","OIL"
"104","2018","AK","Port Lions Microgrid","6282","Kodiak Electric Assn Inc","10433","Kodiak Island","57.864775","-152.855441","5","OIL"
"105","2018","AK","Power Creek","7862","Cordova Electric Coop, Inc","40215","Valdez Cordova","60.588686","-145.604539","2","HYDRO"
"106","2018","AK","Purple Lake","6302","Metlakatla Power & Light","12385","Prince of Wales-Hyder","55.091263","-131.544978","3","HYDRO"
"107","2018","AK","Quinhagak","57057","Alaska Village Elec Coop, Inc","221","Bethel","59.747436","-161.910647","5","OIL"
"108","2018","AK","S W Bailey","85","Ketchikan Public Utilities","10210","Ketchikan Gateway","55.357397","-131.69696","4","OIL"
"109","2018","AK","Salmon Creek 1","65","Alaska Electric Light&Power Co","213","Juneau","58.3269","-134.4631","1","HYDRO"
"110","2018","AK","Savoonga","57052","Alaska Village Elec Coop, Inc","221","Nome","63.695267","-170.475661","3","OIL"
"111","2018","AK","Scammon Bay","57056","Alaska Village Elec Coop, Inc","221","Wade Hampton","61.843036","-165.581497","3","OIL"
"112","2018","AK","Selawik","6341","Alaska Village Elec Coop, Inc","221","Northwest Arctic","66.606778","-160.014808","8","OIL"
"113","2018","AK","Seldovia","6283","Homer Electric Assn Inc","19558","Kenai Peninsula","59.439542","-151.713439","7","OIL"
"114","2018","AK","Seward (AK)","92","City of Seward - (AK)","16955","Kenai Peninsula","60.130922","-149.43501","8","OIL"
"115","2018","AK","Shishmaref","6345","Alaska Village Elec Coop, Inc","221","Nome","66.255072","-166.073589","6","OIL"
"116","2018","AK","Shungnak","57063","Alaska Village Elec Coop, Inc","221","Northwest Arctic","66.888114","-157.140206","4","OIL"
"117","2018","AK","Silvis","6581","Ketchikan Public Utilities","10210","Ketchikan Gateway","55.381402","-131.517758","1","HYDRO"
"118","2018","AK","Skagway","66","Alaska Power and Telephone Co","219","Skagway","59.4545","-135.3131","8","HYDRO"
"119","2018","AK","Slana Generating Station","61685","Alaska Power and Telephone Co","219","Southeast Fairbanks","62.592756","-143.588869","3","OIL"
"120","2018","AK","Snake River","90","Nome Joint Utility Systems","13642","Nome","64.505331","-165.429814","12","OIL"
"121","2018","AK","Snettisham","78","Alaska Electric Light&Power Co","213","Juneau","58.1415","-133.737","3","HYDRO"
"122","2018","AK","Soldotna","57206","Homer Electric Assn Inc","19558","Kenai Peninsula","60.499444","-150.997222","2","GAS"
"123","2018","AK","Solomon Gulch","390","Copper Valley Elec Assn, Inc","4329","Valdez Cordova","61.0828","-146.3033","2","HYDRO"
"124","2018","AK","South Fork","56265","Alaska Power and Telephone Co","219","Prince of Wales-Hyder","55.563333","-132.891111","1","HYDRO"
"125","2018","AK","Southcentral Power Project","57036","Chugach Electric Assn Inc","3522","Anchorage","61.167417","-149.905304","6","GAS"
"126","2018","AK","St Marys IC","6338","Alaska Village Elec Coop, Inc","221","Bethel","62.051525","-163.172567","4","OIL"
"127","2018","AK","St. Michael","57061","Alaska Village Elec Coop, Inc","221","Nome","63.4775","-162.0383","4","OIL"
"128","2018","AK","Stebbins","57055","Alaska Village Elec Coop, Inc","221","Nome","63.521047","-162.286322","7","OIL"
"129","2018","AK","Swampy Acres","60250","Kodiak Electric Assn Inc","10433","Kodiak Island","57.77556","-152.48028","3","OIL"
"130","2018","AK","Swan Lake","70","Southeast Alaska Power Agency","60123","Ketchikan Gateway","55.615208","-131.356111","2","HYDRO"
"131","2018","AK","Sweetheart Lake Hydroelectric Facility","60588","Juneau Hydropower, Inc","60349","Juneau","57.9449","-133.6867","3","HYDRO"
"132","2018","AK","Terror Lake Microgrid","71","Kodiak Electric Assn Inc","10433","Kodiak Island","57.6861","-152.895","3","HYDRO"
"133","2018","AK","Tesoro Kenai Cogeneration Plant","52184","Tesoro Alaska Company LLC","18617","Kenai Peninsula","60.677","-151.3815","3","GAS"
"134","2018","AK","Thorne Bay Plant","7414","Alaska Power and Telephone Co","219","Prince of Wales-Hyder","55.68586","-132.52892","2","OIL"
"135","2018","AK","TNSG North Plant","58278","TDX North Slope Generating Inc.","57494","North Slope","70.235278","-148.383611","5","GAS"
"136","2018","AK","TNSG South Plant","58117","TDX North Slope Generating Inc.","57494","North Slope","70.2","-148.466667","6","GAS"
"137","2018","AK","Togiak","6348","Alaska Village Elec Coop, Inc","221","Dillingham","59.059744","-160.380278","11","OIL"
"138","2018","AK","Tok","406","Alaska Power and Telephone Co","219","Southeast Fairbanks","63.33552","-142.99997","6","OIL"
"139","2018","AK","Toksook Bay","57067","Alaska Village Elec Coop, Inc","221","Bethel","60.530142","-165.108575","3","OIL"
"140","2018","AK","Tyee Lake Hydroelectric Facility","61166","Southeast Alaska Power Agency","60123","Wrangell","56.216403","-131.504344","2","HYDRO"
"141","2018","AK","Unalakleet","6299","Unalakleet Valley Elec Coop","40548","Nome","63.876789","-160.790414","8","OIL"
"142","2018","AK","Unalaska Power Module","7503","City of Unalaska - (AK)","19454","Aleutians West","53.863993","-166.512591","1","OIL"
"143","2018","AK","Unisea G 2","54422","Unisea Inc","19553","Aleutians West","53.8796","-166.5532","10","OIL"
"144","2018","AK","University of Alaska Fairbanks","50711","University of Alaska","19511","Fairbanks North Star","64.854171","-147.822075","6","COAL"
"145","2018","AK","Upper Kalskag","57054","Alaska Village Elec Coop, Inc","221","Bethel","61.526858","-160.348128","3","OIL"
"146","2018","AK","Utility Plants Section","50308","Doyon Utilities - Ft. Wainwright","56389","Fairbanks North Star","64.825601","-147.648627","6","COAL"
"147","2018","AK","Valdez","6306","Copper Valley Elec Assn, Inc","4329","Valdez Cordova","61.1303","-146.3647","7","OIL"
"148","2018","AK","Valdez Cogen","7841","Copper Valley Elec Assn, Inc","4329","Valdez Cordova","61.0839","-146.2529","1","OIL"
"149","2018","AK","Viking","56147","Alaska Power and Telephone Co","219","Prince of Wales-Hyder","55.540708","-133.102344","1","OIL"
"150","2018","AK","Westward Seafoods","54305","Westward Seafoods Inc","20523","Aleutians West","53.858508","-166.55288","3","OIL"
"151","2018","AK","Whitman","58977","Ketchikan Public Utilities","10210","Ketchikan Gateway","55.328056","-131.530833","2","HYDRO"
"152","2018","AK","Wrangell","95","City of Wrangell - (AK)","21015","Wrangell","56.460976","-132.379439","10","OIL"
"153","2018","AK","Yakutat","6637","Alaska Village Elec Coop, Inc","221","Yakutat","59.544553","-139.724306","9","OIL"
"154","2018","AL","ABC Coke","56076","Drummond Company, Inc.","5321","Jefferson","33.582793","-86.779866","1","COAL"
"155","2018","AL","Alabama Pine Pulp","54429","Alabama River Cellulose LLC","57356","Monroe","31.5825","-87.4889","2","BIOMASS"
"156","2018","AL","Alabama River Pulp","10216","Alabama River Cellulose LLC","57356","Monroe","31.5825","-87.4889","2","BIOMASS"
"157","2018","AL","Albertville","7924","Albertville Municipal Utilities Board","241","Marshall","34.363389","-86.223889","4","OIL"
"158","2018","AL","AMEA Sylacauga Plant","56018","Alabama Municipal Elec Authority","40614","Talladega","33.1661","-86.2825","2","GAS"
"159","2018","AL","ANAD Solar Array","60680","Alabama Power Co","195","Calhoun","33.626728","-85.969481","1","SOLAR"
"163","2018","AL","Bankhead Dam","2","Alabama Power Co","195","Tuscaloosa","33.458665","-87.356823","1","HYDRO"
"164","2018","AL","Barry","3","Alabama Power Co","195","Mobile","31.0069","-88.0103","8","COAL"
"165","2018","AL","Bartletts Ferry","702","Georgia Power Co","7140","Lee","32.661976","-85.091552","6","HYDRO"
"166","2018","AL","Bellefonte","6150","Tennessee Valley Authority","18642","Jackson","34.7092","-85.9278","2","OIL"
"167","2018","AL","Boise Cascade Pulp & Paper Mill","55044","Boise White Paper LLC","56310","Clarke","31.4894","-87.8989","4","BIOMASS"
"168","2018","AL","Browns Ferry","46","Tennessee Valley Authority","18642","Limestone","34.7042","-87.1189","3","NUCLEAR"
"169","2018","AL","Calhoun Energy Center","55409","Calhoun Power Co LLC","34028","Calhoun","33.5883","-85.9731","4","GAS"
"170","2018","AL","Charles R Lowman","56","PowerSouth Energy Cooperative","189","Washington","31.488019","-87.910747","3","COAL"
"171","2018","AL","Colbert","47","Tennessee Valley Authority","18642","Colbert","34.7439","-87.8486","8","GAS"
"172","2018","AL","Crestwood Dothan","54985","Crestwood Corp","4468","Houston","31.262356","-85.402737","8","OIL"
"173","2018","AL","Cumblerland Land Holdings, LLC","61924","Cumberland Land Holdings, LLC","61528","Limestone","34.94974","-86.868053","1","SOLAR"
"174","2018","AL","Decatur Energy Center","55292","Decatur Energy Center LLC","2929","Morgan","34.6292","-87.0214","3","GAS"
"175","2018","AL","Decatur-Morgan Co LFG Recovery Project","58061","EDL Inc","55858","Morgan","34.623611","-87.101111","2","BIOMASS"
"176","2018","AL","District 100 Transco Gas Pipe Line","54743","Transcontinental Gas PL Corp","19102","Chilton","32.668889","-86.72","2","OTHF"
"177","2018","AL","E B Harris Generating Plant","7897","Southern Power Co","17650","Autauga","32.381352","-86.574366","4","GAS"
"178","2018","AL","E C Gaston","26","Alabama Power Co","195","Shelby","33.244211","-86.458056","5","COAL"
"179","2018","AL","ExxonMobil Mobile Bay Onshore","54550","Exxon Mobil Production Co","6529","Mobile","30.43203","-88.18241","4","GAS"
"180","2018","AL","Fort Rucker Solar Array","60679","Alabama Power Co","195","Dale","31.331148","-85.73019","1","SOLAR"
"181","2018","AL","Gadsden","7","Alabama Power Co","195","Etowah","34.0128","-85.9708","2","GAS"
"182","2018","AL","Gantt","53","PowerSouth Energy Cooperative","189","Covington","31.4033","-86.479469","2","HYDRO"
"183","2018","AL","Georgia-Pacific Brewton Mill","54789","Georgia-Pacific Brewton LLC","55932","Escambia","31.077","-87.1116","7","BIOMASS"
"184","2018","AL","Georgia-Pacific Consr Prods LP-Naheola","10699","Georgia-Pacific Consr Prods LP-Naheola","7136","Choctaw","32.2268","-88.0252","4","BIOMASS"
"185","2018","AL","Goat Rock","707","Georgia Power Co","7140","Lee","32.60965","-85.0805","8","HYDRO"
"186","2018","AL","Gorgas","8","Alabama Power Co","195","Walker","33.644344","-87.196486","3","COAL"
"187","2018","AL","Greene County","10","Alabama Power Co","195","Greene","32.6017","-87.7811","11","GAS"
"188","2018","AL","Guntersville","48","Tennessee Valley Authority","18642","Marshall","34.421272","-86.393931","4","HYDRO"
"189","2018","AL","H Neely Henry Dam","11","Alabama Power Co","195","Calhoun","33.7845","-86.0524","3","HYDRO"
"190","2018","AL","Harris Dam","6188","Alabama Power Co","195","Randolph","33.258281","-85.616047","2","HYDRO"
"191","2018","AL","Hillabee Energy Center","55411","CER Generation LLC","55987","Tallapoosa","33.000669","-85.903278","2","GAS"
"192","2018","AL","Hog Bayou Energy Center","55241","Mobile Energy LLC","12739","Mobile","30.7478","-88.0575","1","GAS"
"193","2018","AL","Holt Dam","12","Alabama Power Co","195","Tuscaloosa","33.2553","-87.4495","1","HYDRO"
"194","2018","AL","International Paper Pine Hill Mill","54752","International Paper Co.","56291","Wilcox","31.9698","-87.4806","3","BIOMASS"
"195","2018","AL","International Paper-Prattville Mill","52140","International Paper Co","8009","Autauga","32.4187","-86.4718","4","BIOMASS"
"196","2018","AL","International Paper-Riverdale Mill","54096","International Paper Co-Riverdl","9393","Dallas","32.426016","-86.870912","4","GAS"
"197","2018","AL","James H Miller Jr","6002","Alabama Power Co","195","Jefferson","33.6319","-87.0597","4","COAL"
"198","2018","AL","Jones Bluff","6131","USCE-Mobile District","27813","Autauga","32.324242","-86.784319","4","HYDRO"
"199","2018","AL","Jordan Dam","13","Alabama Power Co","195","Elmore","32.6189","-86.2548","4","HYDRO"
"200","2018","AL","Joseph M Farley","6001","Alabama Power Co","195","Houston","31.2231","-85.1116","2","NUCLEAR"
"201","2018","AL","Kimberly Clark Mobile - CHP Plant","62449","Kimberly Clark - Mobile Alabama","61964","Mobile","30.737741","-88.04977","2","GAS"
"202","2018","AL","LaFayette Solar Farm","60583","AL Solar A, LLC","60347","Chambers","32.876313","-85.38821","1","SOLAR"
"203","2018","AL","Langdale","711","Georgia Power Co","7140","Chambers","32.813836","-85.167786","2","HYDRO"
"204","2018","AL","Lay Dam","15","Alabama Power Co","195","Chilton","32.9633","-86.5187","6","HYDRO"
"205","2018","AL","Lewis Smith Dam","18","Alabama Power Co","195","Walker","33.9406","-87.1077","2","HYDRO"
"206","2018","AL","Logan Martin Dam","14","Alabama Power Co","195","Talladega","33.425878","-86.337547","3","HYDRO"
"207","2018","AL","Martin Dam","16","Alabama Power Co","195","Elmore","32.680394","-85.911442","4","HYDRO"
"208","2018","AL","McIntosh (7063)","7063","PowerSouth Energy Cooperative","189","Washington","31.2546","-88.0299","5","GAS"
"209","2018","AL","McWilliams","533","PowerSouth Energy Cooperative","189","Covington","31.400255","-86.476449","3","GAS"
"210","2018","AL","Millers Ferry","38","USCE-Mobile District","27813","Wilcox","32.100881","-87.399767","3","HYDRO"
"211","2018","AL","Mitchell Dam","17","Alabama Power Co","195","Coosa","32.806025","-86.444892","4","HYDRO"
"212","2018","AL","Mobile Energy Services LLC","50407","DTE Energy Services","34672","Mobile","30.736487","-88.051643","5","GAS"
"213","2018","AL","Morgan Energy Center","55293","Morgan Energy Center LLC","29122","Morgan","34.6397","-87.0639","3","GAS"
"214","2018","AL","Muscle Shoals","62462","First Solar Project Development","56615","Colbert","34.76973","-87.90454","1","SOLAR"
"215","2018","AL","Pinckard Solar","62787","E ON Climate Renewables N America LLC","56215","Dale","31.297","-85.536","1","SOLAR"
"216","2018","AL","Plant H. Allen Franklin","7710","Southern Power Co","17650","Lee","32.6078","-85.0975","6","GAS"
"217","2018","AL","Point A","55","PowerSouth Energy Cooperative","189","Covington","31.361146","-86.518307","3","HYDRO"
"218","2018","AL","Redstone Arsenal","61901","Redstone Solar I, LLC","61513","Madison","34.610987","-86.611551","2","SOLAR"
"219","2018","AL","River Bend Solar, LLC","60058","River Bend Solar, LLC","59790","Lauderdale","34.831511","-87.842204","1","SOLAR"
"220","2018","AL","Rock-Tenn Mill","54763","WestRock Mill Company, LLC","59976","Marengo","32.4541","-87.9759","8","BIOMASS"
"221","2018","AL","SABIC Innovative Plastics - Burkville","7698","Alabama Power Co","195","Lowndes","32.310226","-86.52542","1","GAS"
"222","2018","AL","Sand Valley Power Station","59710","EDL Inc","55858","Dekalb","34.343875","-85.866103","3","BIOMASS"
"223","2018","AL","Sloss Industries Corp","50359","ERP Compliant Coke, LLC","17330","Jefferson","33.568164","-86.79873","3","COAL"
"224","2018","AL","Tenaska Central Alabama Gen Station","55440","Tenaska Alabama B LP","18835","Autauga","32.6497","-86.74","3","GAS"
"225","2018","AL","Tenaska Lindsay Hill Generating Station","55271","Tenaska Alabama Partners LP","31386","Autauga","32.6514","-86.7386","3","GAS"
"226","2018","AL","Theodore Cogeneration","7721","Alabama Power Co","195","Mobile","30.525445","-88.128477","1","GAS"
"227","2018","AL","Thurlow Dam","19","Alabama Power Co","195","Elmore","32.535436","-85.887614","3","HYDRO"
"228","2018","AL","Tom Bevill Lock and Dam Hydroelectric","61749","Energy Resources USA, Inc.","60718","Pickens","33.210892","-88.289611","3","HYDRO"
"229","2018","AL","U S Alliance Coosa Pines","54216","Bowater Newport Coosa Pines Op","2053","Talladega","33.328107","-86.356825","7","BIOMASS"
"230","2018","AL","Walter Bouldin Dam","4","Alabama Power Co","195","Elmore","32.583889","-86.283056","3","HYDRO"
"231","2018","AL","Walton Discover Power Facility","55138","Walton Discover LLC","60492","LEE","32.54098","-85.038879","4","GAS"
"232","2018","AL","Washington County Cogen (Olin)","7697","Alabama Power Co","195","Washington","31.2504","-88.0156","1","GAS"
"233","2018","AL","Weiss Dam","20","Alabama Power Co","195","Cherokee","34.172142","-85.753806","3","HYDRO"
"234","2018","AL","Westervelt Moundville Cogen","57467","The Westervelt Co","56785","Hale","32.960714","-87.655419","2","BIOMASS"
"235","2018","AL","WestRock Coated Board","54802","Mead Coated Board Inc","12222","Russell","32.1761","-85.0272","7","GAS"
"236","2018","AL","Wheeler Dam","49","Tennessee Valley Authority","18642","Lawrence","34.8069","-87.3819","11","HYDRO"
"237","2018","AL","Widows Creek","50","Tennessee Valley Authority","18642","Jackson","34.883022","-85.755253","8","COAL"
"238","2018","AL","Wilson Dam","6440","Tennessee Valley Authority","18642","Lauderdale","34.79782","-87.62537","21","HYDRO"
"239","2018","AL","Yates Dam","21","Alabama Power Co","195","Elmore","32.5743","-85.8901","2","HYDRO"
"240","2018","AL","Yellowhammer Gas Plant","54730","W&T Offshore Inc","57139","MOBILE","30.403538","-88.12833","1","GAS"
"241","2018","AR","Archer Daniels Midland Little Rock","54311","Archer Daniels Midland Co","772","Pulaski","34.7","-92.199722","4","GAS"
"242","2018","AR","Arkansas Nuclear One","8055","Entergy Arkansas LLC","814","Pope","35.311","-93.2351","2","NUCLEAR"
"243","2018","AR","Ashdown","54104","Domtar Industries Inc","5262","Little River","33.6417","-94.1083","5","BIOMASS"
"244","2018","AR","Beaver Dam","182","USCE-Little Rock District","19647","Carroll","36.421507","-93.847373","2","HYDRO"
"245","2018","AR","Blakely Mountain","197","USCE -Vickburg District","19406","Garland","34.570984","-93.194425","2","HYDRO"
"246","2018","AR","Bull Shoals","198","USCE-Little Rock District","19647","Marion","36.3635","-92.5763","8","HYDRO"
"247","2018","AR","Carl Bailey","202","Arkansas Electric Coop Corp","807","Woodruff","35.260102","-91.363426","1","GAS"
"248","2018","AR","Carpenter","166","Entergy Arkansas LLC","814","Garland","34.4425","-93.0262","2","HYDRO"
"250","2018","AR","City Water & Light - City of Jonesboro","56505","City Water and Light Plant","9879","Craighead","35.848561","-90.725377","3","GAS"
"251","2018","AR","Clearwater Paper APP CB","50638","Clearwater Paper Corporation","56225","Desha","33.7061","-91.2371","2","BIOMASS"
"252","2018","AR","Columbia Flooring Melbourne","56182","Unilin Flooring NC LLC-Columbia Flooring","49831","Izard","36.060514","-91.919802","1","BIOMASS"
"253","2018","AR","Dam 2","7246","Arkansas Electric Coop Corp","807","Desha","33.986501","-91.315788","3","HYDRO"
"254","2018","AR","Dardanelle","199","USCE-Little Rock District","19647","Pope","35.2503","-93.1686","4","HYDRO"
"255","2018","AR","Degray","187","USCE -Vickburg District","19406","Clark","34.211913","-93.110963","2","HYDRO"
"256","2018","AR","Dell Power Plant","55340","Associated Electric Coop, Inc","924","Mississippi","35.8619","-90.0253","2","GAS"
"257","2018","AR","Elkins Generating Center","56489","Arkansas Electric Coop Corp","807","Washington","35.9714","-94.0014","3","GAS"
"258","2018","AR","Ellis Hydro","7040","Arkansas Electric Coop Corp","807","Crawford","35.351361","-94.294349","3","HYDRO"
"259","2018","AR","FECC Solar Benton","61839","Today's Power, Inc.","61204","Saline","34.638429","-92.578347","1","SOLAR"
"260","2018","AR","Flint Creek Power Plant","6138","Southwestern Electric Power Co","17698","Benton","36.2561","-94.5241","1","COAL"
"261","2018","AR","Fourche Creek Wastewater","10050","Little Rock Wastewater Utility","11079","Pulaski","34.6968","-92.165","4","BIOMASS"
"262","2018","AR","Fulton","7825","Arkansas Electric Coop Corp","807","Hempstead","33.6094","-93.7924","1","GAS"
"263","2018","AR","Genova Arkansas I LLC","55869","Southwestern Electric Power Co","17698","Washington","36.186111","-94.284166","3","GAS"
"264","2018","AR","Georgia-Pacific Crossett LLC","10606","Georgia-Pacific LLC","4580","Ashley","33.1421","-91.975","5","BIOMASS"
"265","2018","AR","Greers Ferry Lake","188","USCE-Little Rock District","19647","Cleburne","35.5207","-91.9953","2","HYDRO"
"266","2018","AR","Hamilton Moses","168","Entergy Arkansas LLC","814","St Francis","34.9806","-90.8722","2","GAS"
"267","2018","AR","Harry D. Mattison Power Plant","56328","Southwestern Electric Power Co","17698","Washington","36.1855","-94.2841","4","GAS"
"268","2018","AR","Harvey Couch","169","Entergy Arkansas LLC","814","Lafayette","33.3592","-93.4649","2","GAS"
"269","2018","AR","Hot Spring Energy Facility","55418","Entergy Arkansas LLC","814","Hot Spring","34.29759","-92.868344","2","GAS"
"270","2018","AR","Independence","6641","Entergy Arkansas LLC","814","Independence","35.678442","-91.408761","2","COAL"
"271","2018","AR","John W. Turk Jr. Power Plant","56564","Southwestern Electric Power Co","17698","Hempstead","33.649722","-93.811944","1","COAL"
"272","2018","AR","Lake Catherine","170","Entergy Arkansas LLC","814","Hot Spring","34.4341","-92.9049","1","GAS"
"273","2018","AR","Lee Creek Water Treatment Facility","54283","Fort Smith City of","31518","Crawford","35.484488","-94.392858","1","HYDRO"
"274","2018","AR","Mabelvale","171","Entergy Arkansas LLC","814","Pulaski","34.635997","-92.409602","4","GAS"
"275","2018","AR","Magnet Cove Generating Station","55714","Arkansas Electric Coop Corp","807","Hot Spring","34.4297","-92.8317","2","GAS"
"276","2018","AR","McClellan","203","Arkansas Electric Coop Corp","807","Ouachita","33.5648","-92.7917","1","GAS"
"277","2018","AR","Municipal Light","193","City of Piggott - (AR)","15043","Clay","36.3858","-90.1867","5","OIL"
"278","2018","AR","Murray","7166","City of North Little Rock - (AR)","13718","Pulaski","34.7956","-92.3569","2","HYDRO"
"279","2018","AR","Narrows (AR)","195","USCE -Vickburg District","19406","Pike","34.148427","-93.715168","3","HYDRO"
"281","2018","AR","Norfork","196","USCE-Little Rock District","19647","Baxter","36.2491","-92.2401","2","HYDRO"
"282","2018","AR","Osceola (AR)","172","City of Osceola - (AR)","14216","Mississippi","35.6893","-89.994","6","OIL"
"283","2018","AR","Oswald Generating Station","55221","Arkansas Electric Coop Corp","807","Pulaski","34.5923","-92.2166","7","GAS"
"284","2018","AR","Ozark","6142","USCE-Little Rock District","19647","Franklin","35.4693","-93.8175","5","HYDRO"
"285","2018","AR","Ozarks Natural Energy Community Solar","60924","Ozarks Electric Coop Corp - (AR)","14289","Washington","36.164296","-94.082269","1","SOLAR"
"286","2018","AR","Paragould","192","Paragould Light & Water Comm","14446","Greene","36.060556","-90.521389","5","OIL"
"287","2018","AR","Paragould Reciprocating","8015","Paragould Light & Water Comm","14446","Greene","36.0242","-90.5094","3","GAS"
"288","2018","AR","Paragould Turbine","7283","Paragould Light & Water Comm","14446","Greene","36.024272","-90.509229","5","GAS"
"289","2018","AR","Pine Bluff Energy Center","55075","Pine Bluff Energy LLC","28764","Jefferson","34.2181","-91.9025","1","GAS"
"290","2018","AR","Pine Bluff Mill","10627","Evergreen Packaging Inc","55863","Jefferson","34.221213","-91.907365","6","BIOMASS"
"291","2018","AR","Plum Point Energy Station","56456","NRG Energy Services - Plum Point","58905","Mississippi","35.6644","-89.9489","1","COAL"
"292","2018","AR","Remmel","174","Entergy Arkansas LLC","814","Hot Spring","34.4272","-92.8941","3","HYDRO"
"293","2018","AR","Riceland Foods Cogeneration Plant","56079","Riceland Foods Inc.","15597","Arkansas","34.5136","-91.5331","2","BIOMASS"
"294","2018","AR","Robert E Ritchie","173","Entergy Arkansas LLC","814","Phillips","34.4629","-90.5987","3","GAS"
"295","2018","AR","Scenic Hill Solar III","61869","Scenic Hill Solar III LLC","61486","Johnson","35.46715","-93.51517","1","SOLAR"
"297","2018","AR","SR Camden","59947","SR Camden, LLC","59710","Calhoun","33.631538","-92.703611","1","SOLAR"
"298","2018","AR","Stuttgart Solar","61262","Stuttgart Solar, LLC","60871","Arkansas","34.439722","-91.44","1","SOLAR"
"299","2018","AR","Thomas Fitzhugh","201","Arkansas Electric Coop Corp","807","Franklin","35.462382","-93.804926","1","GAS"
"300","2018","AR","Two Pine Landfill Gas Recovery","56523","WM Renewable Energy LLC","54842","Pulaski","34.8332","-92.157103","6","BIOMASS"
"301","2018","AR","UA Central Utility Plant","60536","University Of Arkansas","60295","Washington","36.066336","-94.172254","1","GAS"
"302","2018","AR","Union Power Station","55380","Entergy Arkansas LLC","814","Union","33.296146","-92.589364","8","GAS"
"303","2018","AR","Waste Management Eco Vista LFGTE","57025","WM Renewable Energy LLC","54842","Washington","36.140849","-94.259713","5","BIOMASS"
"305","2018","AR","Whillock","7135","Arkansas Electric Coop Corp","807","Conway","35.127591","-92.790273","3","HYDRO"
"306","2018","AR","White Bluff","6009","Entergy Arkansas LLC","814","Jefferson","34.4228","-92.1406","2","COAL"
"307","2018","AR","White River Lock and Dam 1","57160","White River Hydroelectric","56515","Independence","35.757401","-91.636887","1","HYDRO"
"308","2018","AR","White River Lock and Dam 2","57161","White River Hydroelectric","56515","Independence","35.744036","-91.765418","1","HYDRO"
"309","2018","AR","White River Lock and Dam 3","57162","White River Hydroelectric","56515","Stone","35.84361","-91.850521","1","HYDRO"
"310","2018","AZ","Actus Lend Lease DMAFB","58632","Tesla Inc.","60947","Pima","32.1825","-110.863333","1","SOLAR"
"311","2018","AZ","AES ES GILBERT","61861","AES ES GILBERT, LLC","61482","Maricopa","33.446804","-111.956261","1","OTHF"
"312","2018","AZ","Agua Caliente Solar Project","57373","Agua Caliente Solar","59396","Yuma","32.9774","-113.4945","4","SOLAR"
"313","2018","AZ","Agua Fria Generating Station","141","Salt River Project","16572","Maricopa","33.5561","-112.2153","4","GAS"
"314","2018","AZ","Amphitheater High School Solar","60684","Constellation Solar Arizona 2, LLC","60404","Pima","32.269","-110.975","1","SOLAR"
"315","2018","AZ","Apache Solar 1","60964","Arizona Electric Pwr Coop Inc","796","Cochise","32.068141","-109.890379","1","SOLAR"
"316","2018","AZ","Apache Station","160","Arizona Electric Pwr Coop Inc","796","Cochise","32.0603","-109.8931","4","GAS"
"317","2018","AZ","APS Saguaro Power Plant","118","Arizona Public Service Co","803","Pinal","32.5517","-111.3","2","GAS"
"318","2018","AZ","APS West Phoenix Power Plant","117","Arizona Public Service Co","803","Maricopa","33.4417","-112.1583","3","GAS"
"319","2018","AZ","Arizona State University CHP","58199","NRG Energy Center Phoenix LLC","58172","Maricopa","33.417222","-111.928333","1","GAS"
"320","2018","AZ","Arizona Western College PV","57765","Main Street Power","58863","Yuma","32.687778","-114.49611","7","SOLAR"
"321","2018","AZ","Arlington Valley Energy Facility","55282","Arlington Valley LLC","56812","Maricopa","33.3417","-112.8897","2","GAS"
"322","2018","AZ","Arlington Valley Solar Energy I","57679","Consolidated Edison Development Inc.","56769","Maricopa","33.321667","-112.880555","1","SOLAR"
"323","2018","AZ","Arlington Valley Solar Energy II","57680","Arlington Valley Solar Energy II LLC","57004","Maricopa","33.305","-112.833888","5","SOLAR"
"324","2018","AZ","Arzon Solar UASTP Solar Power Station","57930","FRB Solar LLC","61055","Pima","32.108147","-110.824662","1","SOLAR"
"325","2018","AZ","Avalon Solar","59168","Avalon Solar","59384","Pima","32.001389","-110.960556","1","SOLAR"
"326","2018","AZ","Avalon Solar II","60062","Avalon Solar Partners II, LLC","59789","Pima","32.000854","-110.958427","1","SOLAR"
"327","2018","AZ","Avra Valley Solar","57657","NRG Solar Avra Valley","59398","Pima","32.371667","-111.282777","1","SOLAR"
"328","2018","AZ","AZ State University - Tempe Campus Solar","62643","Arizona State University FDM","62083","Maricopa","33.424279","-111.92822","10","SOLAR"
"329","2018","AZ","Badger 1","58262","Desert Sky Solar LLC","58239","Maricopa","33.498003","-112.813458","1","SOLAR"
"330","2018","AZ","Black Mountain Generating Station","56482","UNS Electric, Inc","19728","Mohave","35.0361","-114.1594","2","GAS"
"331","2018","AZ","Black Mountain Solar LLC","58042","Black Mountain Solar LLC","57413","Mohave","35.0227","-114.1627","1","SOLAR"
"332","2018","AZ","Bonnybrooke PV","60413","Apple, Inc","57369","Pinal","33.053","-111.34","1","SOLAR"
"333","2018","AZ","Buckeye Generation Center, LLC","59471","Cogentrix Development Holdings, LLC","59235","Maricopa","33.230833","-112.626389","6","GAS"
"334","2018","AZ","Buckeye Union HS District 201","58037","Constellation Solar Arizona LLC","57408","Maricopa","33.419167","-112.576111","1","SOLAR"
"335","2018","AZ","Canyon Del Oro High School Solar","60685","Constellation Solar Arizona 2, LLC","60404","Pima","32.374","-110.974","4","SOLAR"
"336","2018","AZ","Childs","112","Arizona Public Service Co","803","Yavapai","34.351111","-111.700556","3","HYDRO"
"337","2018","AZ","Chino Solar Valley","57560","Arizona Public Service Co","803","Yavapai","34.71843","-112.42899","1","SOLAR"
"338","2018","AZ","Cholla","113","Arizona Public Service Co","803","Navajo","34.9394","-110.3033","3","COAL"
"339","2018","AZ","Cogeneration 1","56229","University of Arizona","49913","Pima","32.229922","-110.952797","1","GAS"
"340","2018","AZ","Cogeneration 2","59233","University of Arizona","49913","Pima","32.240833","-110.948333","1","GAS"
"341","2018","AZ","Cogenra - TEP","58832","Washington Gas Energy Systems","58705","Pima","32.101944","-110.813333","1","SOLAR"
"342","2018","AZ","Concord Blue Eagar, LLC","60374","Concord Blue Eagar, LLC","60167","Apache","34.11494","-109.37503","2","BIOMASS"
"343","2018","AZ","Coolidge Generating Station","56948","Coolidge Power LLC","56218","Pinal","32.917399","-111.503327","12","GAS"
"344","2018","AZ","Copper Crossing Energy Center","58413","Salt River Project","16572","Pinal","33.15512","-111.483636","9","GAS"
"345","2018","AZ","Copper Crossing Solar LLC","57318","Avangrid Renewables LLC","15399","Gila","33.160601","-111.484011","1","SOLAR"
"346","2018","AZ","Coronado Generating Station","6177","Salt River Project","16572","Apache","34.5789","-109.2708","2","COAL"
"347","2018","AZ","Cotton Center Solar","57561","Arizona Public Service Co","803","Maricopa","33.034722","-112.661667","2","SOLAR"
"349","2018","AZ","Davis Dam","152","U S Bureau of Reclamation","2518","Mohave","35.197044","-114.570669","5","HYDRO"
"350","2018","AZ","Davis Monthan AFB (AZ) West Airfield","59779","SunE DM, LLC","59544","Pima","32.17356","-110.899734","1","SOLAR"
"351","2018","AZ","De Moss Petrie Generating Station","124","Tucson Electric Power Co","24211","Pima","32.252273","-110.992148","1","GAS"
"352","2018","AZ","Desert Basin Generating Station","55129","Salt River Project","16572","Pinal","32.9042","-111.7889","2","GAS"
"353","2018","AZ","Dolan Springs","57920","Avangrid Renewables LLC","15399","Mohave","35.61","-114.26","1","WIND"
"354","2018","AZ","Douglas","114","Arizona Public Service Co","803","Cochise","31.364122","-109.5538","1","OIL"
"355","2018","AZ","Dry Lake Solar","57922","Avangrid Renewables LLC","15399","Navajo","34.513333","-110.078333","1","SOLAR"
"356","2018","AZ","Dry Lake Wind II LLC","57379","Avangrid Renewables LLC","15399","Navajo","34.6062","-110.1734","1","WIND"
"357","2018","AZ","Dry Lake Wind LLC","57098","Avangrid Renewables LLC","15399","Navajo","34.6596","-110.2842","1","WIND"
"358","2018","AZ","East Line Solar","62899","East Line Solar, LLC","62667","Pinal","32.84703","-111.565072","1","SOLAR"
"359","2018","AZ","Estrella Mountain PV","60230","Tesla Inc.","60947","Maricopa","33.409803","-112.340297","1","SOLAR"
"360","2018","AZ","FirstEnergy","55711","Allegheny Energy Supply Co LLC","23279","La Paz","33.935833","-113.555","6","GAS"
"361","2018","AZ","Foothills Solar Plant","57997","Arizona Public Service Co","803","Yuma","32.64856","-114.428741","3","SOLAR"
"362","2018","AZ","Fort Huachuca Solar PV Project","58972","Tucson Electric Power Co","24211","Cochise","31.555278","-110.35","2","SOLAR"
"363","2018","AZ","Gato Montes Solar, LLC","58842","Gato Montes Solar, LLC","58711","Pima","32.102778","-110.819722","1","SOLAR"
"364","2018","AZ","Gila Bend","59020","Arizona Public Service Co","803","Maricopa","32.940833","-112.881389","2","SOLAR"
"365","2018","AZ","Gila Bend Power Generation Station","55507","Gila Bend Power Partners LLC","7189","Maricopa","32.985977","-112.811009","4","GAS"
"366","2018","AZ","Gila River Power Block 2","60768","Salt River Project","16572","Maricopa","32.975","-112.694444","4","GAS"
"367","2018","AZ","Gila River Power Station","55306","Tucson Electric Power Co","24211","Maricopa","32.975","-112.6944","8","GAS"
"368","2018","AZ","Gilbert Solar Facility I, LLC","58543","Gilbert Solar Facility I, LLC","58514","Maricopa","33.355862","-111.802355","1","SOLAR"
"369","2018","AZ","Gillespie 1","58501","X-Elio North America Inc","57354","Maricopa","33.026389","-112.665833","1","SOLAR"
"370","2018","AZ","Glen Canyon Dam","153","U S Bureau of Reclamation","2518","Coconino","36.936614","-111.483872","8","HYDRO"
"371","2018","AZ","Glendale Energy Power Plant","57829","Glendale Energy LLC","57148","Maricopa","33.540324","-112.306361","2","BIOMASS"
"372","2018","AZ","Gray Hawk Solar","61272","Gray Hawk Solar, LLC","60886","Mohave","35.3635","-113.8978","1","SOLAR"
"373","2018","AZ","Griffith Energy Project","55124","Star West Gen Griffith Energy LLC","56090","Mohave","35.054029","-114.133272","2","GAS"
"374","2018","AZ","Headgate Rock","7179","Colorado River Indian Irr Proj","3990","La Paz","34.168264","-114.277356","3","HYDRO"
"375","2018","AZ","Hoover Dam (AZ)","8902","U S Bureau of Reclamation","2518","Mohave","36.01551","-114.738006","10","HYDRO"
"376","2018","AZ","Horse Mesa","145","Salt River Project","16572","Maricopa","33.5907","-111.344","4","HYDRO"
"377","2018","AZ","Hyder II","58383","Arizona Public Service Co","803","Yuma","33.027","-113.3489","2","SOLAR"
"378","2018","AZ","Hyder Solar","57563","Arizona Public Service Co","803","Yuma","33.02566","-113.34397","3","SOLAR"
"379","2018","AZ","Intel - Ocotillo Campus Solar","60822","Tesla Inc.","60947","Maricopa","33.243261","-111.892354","2","SOLAR"
"380","2018","AZ","IRC Generator Facility","56899","Garkane Energy Coop, Inc","6957","Coconino","36.9708","-112.5264","2","OIL"
"381","2018","AZ","Iron Horse Battery Storage","60996","Iron Horse Battery Storage, LLC","60633","Pima","32.098492","-110.819119","2","SOLAR"
"382","2018","AZ","Irving","115","Arizona Public Service Co","803","Yavapai","34.402222","-111.617222","1","HYDRO"
"383","2018","AZ","Irvington Generating Station","126","Tucson Electric Power Co","24211","Pima","32.16","-110.9047","4","GAS"
"384","2018","AZ","Jacobson 5 MW Solar","60603","UNS Electric, Inc","19728","Mohave","35.304528","-114.01183","1","SOLAR"
"385","2018","AZ","Jewish Community Center PV","58292","Main Street Power","58863","Maricopa","33.603056","-111.924722","1","SOLAR"
"386","2018","AZ","Kayenta Solar Project","61268","NGI-Kayenta Solar Lessor I, LLC","60879","Navajo","36.771944","-110.263889","1","SOLAR"
"387","2018","AZ","Kingman 1","57775","Brookfield Energy Marketing LP","11556","Mohave","35.145833","-114.0675","2","WIND"
"388","2018","AZ","Kyrene Generating Station","147","Salt River Project","16572","Maricopa","33.3556","-111.9353","1","GAS"
"389","2018","AZ","La Paz Solar Tower","58652","Enivromission, Inc","58597","La Paz","33.917222","-114.2675","1","SOLAR"
"390","2018","AZ","La Senita","57556","UNS Electric, Inc","19728","Mohave","35.241675","-114.004591","1","SOLAR"
"391","2018","AZ","Lake Pleasant WTP","58539","Solar Star Arizona III LLC","58507","Maricopa","33.820556","-112.24","1","SOLAR"
"392","2018","AZ","Luke Solar","57324","Arizona Public Service Co","803","Maricopa","33.526111","-112.37944","1","SOLAR"
"393","2018","AZ","Macys Goodyear","57673","Macys Corporate Services, Inc","56998","Maricopa","33.409063","-112.414596","1","SOLAR"
"394","2018","AZ","Mesa Solar Array","58466","Apple, Inc","57369","Maricopa","33.346944","-111.603056","1","SOLAR"
"395","2018","AZ","Mesquite Generating Station","55481","Salt River Project","16572","Maricopa","33.345","-112.864167","4","GAS"
"396","2018","AZ","Mesquite Solar 1","57707","Consolidated Edison Development Inc.","56769","Maricopa","33.341833","-112.904028","12","SOLAR"
"397","2018","AZ","Mesquite Solar 2, LLC","60307","Consolidated Edison Development Inc.","56769","Maricopa","33.332777","-112.911388","1","SOLAR"
"398","2018","AZ","Mesquite Solar 3, LLC","60308","Consolidated Edison Development Inc.","56769","Maricopa","33.347583","-112.936805","1","SOLAR"
"399","2018","AZ","Mohave Electric at Fort Mohave","59819","Mohave Sunrise Solar I, LLC","59600","Mohave","34.9843","-114.5565","2","SOLAR"
"400","2018","AZ","Mormon Flat","148","Salt River Project","16572","Maricopa","33.5536","-111.4431","2","HYDRO"
"401","2018","AZ","Navajo Generating Station","4941","Salt River Project","16572","Coconino","36.9047","-111.3886","3","COAL"
"402","2018","AZ","New Harquahala Generating Company, LLC","55372","New Harquahala Generating Co, LLC","32790","Maricopa","33.47596","-113.113434","3","GAS"
"403","2018","AZ","North Loop","6088","Tucson Electric Power Co","24211","Pima","32.401","-111.1262","4","GAS"
"404","2018","AZ","Northwest Regional","57403","WM Renewable Energy LLC","54842","Maricopa","33.681944","-112.476666","2","BIOMASS"
"405","2018","AZ","Novo BioPower Plant","56616","Novo Biopower LLC","55925","Navajo","34.503158","-110.334953","1","BIOMASS"
"406","2018","AZ","Ocotillo Power Plant","116","Arizona Public Service Co","803","Maricopa","33.4225","-111.9122","5","GAS"
"407","2018","AZ","Palo Verde","6008","Arizona Public Service Co","803","Maricopa","33.3881","-112.8617","3","NUCLEAR"
"408","2018","AZ","Paloma Solar","57562","Arizona Public Service Co","803","Maricopa","33.021111","-112.661389","2","SOLAR"
"409","2018","AZ","Paradise Valley H.S. PV","58293","Main Street Power","58863","Maricopa","33.6416","-111.9997","1","SOLAR"
"410","2018","AZ","Perrin Ranch Wind LLC","58155","Perrin Ranch Wind LLC","58132","Coconino","35.415556","-112.271111","1","WIND"
"411","2018","AZ","Phoenix Airport East Economy Lot","58708","Solar Star Arizona II LLC","58649","Maricopa","33.4345","-111.9842","1","SOLAR"
"412","2018","AZ","Phoenix Airport Rental Car Center","58709","Solar Star Arizona II LLC","58649","Maricopa","33.43042","-112.04484","1","SOLAR"
"413","2018","AZ","Picture Rocks Solar, LLC","58486","NVT LICENSES, LLC","58473","Pima","32.369722","-111.242778","1","SOLAR"
"414","2018","AZ","Pima Community College","62075","Tesla Inc.","60947","Pima","32.166494","-110.816669","1","SOLAR"
"415","2018","AZ","Pima Community College - East Campus","61104","Tesla Inc.","60947","Pima","32.146142","-110.990639","1","SOLAR"
"416","2018","AZ","Pima Energy Storage System","61197","Pima Energy Storage System","60834","Pima","32.251647","-110.991333","1","OTHF"
"417","2018","AZ","Pinal Central Energy Center","61678","Pinal Central Energy Center, LLC","61295","Pinal","32.875697","-111.551111","2","SOLAR"
"418","2018","AZ","Prairie Fire","58171","Tucson Electric Power Co","24211","Pima","32.116389","-110.82","1","SOLAR"
"419","2018","AZ","Prescott Airport","56228","Arizona Public Service Co","803","Yavapai","34.6584","-112.4008","2","SOLAR"
"420","2018","AZ","Prescott Solar Plant","58147","SunE AZ1, LLC","58108","Yavapai","34.649444","-112.4275","1","SOLAR"
"421","2018","AZ","Punkin Center Battery Storage","61913","Arizona Public Service Co","803","Gila","33.87581","-111.31356","1","OTHF"
"422","2018","AZ","Queen Creek Solar Farm","57883","Siete Solar LLC","57219","Maricopa","33.2675","-111.612222","1","SOLAR"
"423","2018","AZ","RE Ajo 1 LLC","57795","RE Ajo 1 LLC","57112","Pima","32.367013","-112.831401","1","SOLAR"
"424","2018","AZ","RE Bagdad Solar I LLC","57790","RE Bagdad Solar 1 LLC","57107","Yavapai","34.585833","-113.177222","1","SOLAR"
"425","2018","AZ","Red Horse 2","58833","Red Horse 2","59146","Cochise","32.286111","-110.088056","2","SOLAR"
"426","2018","AZ","Red Horse III","60285","Red Horse III","60068","Cochise","32.13597","-110.05129","1","SOLAR"
"427","2018","AZ","Red Rock","60467","Arizona Public Service Co","803","Maricopa","32.551026","-111.289232","1","SOLAR"
"428","2018","AZ","Redhawk Generating Facility","55455","Arizona Public Service Co","803","Maricopa","33.334562","-112.840641","4","GAS"
"429","2018","AZ","Rio Rico Solar","59044","UNS Electric, Inc","19728","Santa Cruz","31.5","-111.008056","1","SOLAR"
"430","2018","AZ","Roger Road WWTP","57524","SunE M5C Holdings LLC","56857","Pima","32.2894","-111.0331","1","SOLAR"
"431","2018","AZ","Roosevelt","149","Salt River Project","16572","Maricopa","33.671104","-111.161786","1","HYDRO"
"432","2018","AZ","Saddle Mountain Solar I","58213","SunE AZ2 LLC","58182","Maricopa","33.378333","-113.180833","1","SOLAR"
"433","2018","AZ","Sandstone Solar","59634","Sustainable Power Group, LLC","58661","Pinal","33.035556","-111.430278","1","SOLAR"
"434","2018","AZ","Santan","8068","Salt River Project","16572","Maricopa","33.3325","-111.7503","3","GAS"
"435","2018","AZ","Solana Generating Station","56812","Arizona Solar One LLC","56023","Maricopa","32.922294","-112.95594","2","SOLAR"
"436","2018","AZ","South Consolidated","100","Salt River Project","16572","Maricopa","33.466477","-111.781064","1","HYDRO"
"437","2018","AZ","South Point Energy Center, LLC","55177","South Point Energy Center LLC","50157","Mohave","34.8678","-114.5317","2","GAS"
"438","2018","AZ","Springerville Generating Station","8223","Tucson Electric Power Co","24211","Apache","34.3186","-109.1639","7","COAL"
"439","2018","AZ","SR85","59444","Arizona Public Service Co","803","Maricopa","33.145","-112.66","1","SOLAR"
"440","2018","AZ","Stewart Mountain","150","Salt River Project","16572","Maricopa","33.5661","-111.536","1","HYDRO"
"441","2018","AZ","Sulphur Springs","60381","Solar Star Arizona XIII, LLC","60177","Cochise","32.0628","-109.919283","1","SOLAR"
"442","2018","AZ","Sun Streams, LLC","60827","First Solar Project Development","56615","Maricopa","33.34884","-112.8348","1","SOLAR"
"443","2018","AZ","Sundance Power Plant","55522","Arizona Public Service Co","803","Pinal","32.9285","-111.5899","10","GAS"
"444","2018","AZ","T0588 Phoenix - AZ","61199","SoCore Energy LLC","60520","Maricopa","33.447225","-112.217664","1","SOLAR"
"445","2018","AZ","TAA Solar Facility","57391","Tucson Electric Power Co","24211","Pima","32.115833","-110.940833","1","SOLAR"
"446","2018","AZ","Tech Park Solar","59455","Tech Park Solar, LLC","59221","Pima","32.097884","-110.815696","1","SOLAR"
"447","2018","AZ","Tri Cities","7998","Salt River Project","16572","Maricopa","33.4833","-111.8172","5","BIOMASS"
"448","2018","AZ","UASTP I","57392","Tucson Electric Power Co","24211","Pima","32.096973","-110.8106","1","SOLAR"
"449","2018","AZ","Union HS at Casa Grande","58516","Constellation Solar Holding, LLC","58491","Pinal","32.936944","-111.738611","1","SOLAR"
"450","2018","AZ","University of Arizona - Biosphere 2","54594","University of Arizona - Biosphere 2","55994","Pinal","32.578011","-110.852608","2","GAS"
"451","2018","AZ","Valencia","6515","UNS Electric, Inc","19728","Santa Cruz","31.363472","-110.931343","4","GAS"
"452","2018","AZ","Valencia Solar","59454","Valencia Solar, LLC","59220","Pima","32.145833","-110.866944","1","SOLAR"
"453","2018","AZ","Vista Grande HS at Casa Grande","58517","Constellation Solar Holding, LLC","58491","Pinal","32.891389","-111.713056","1","SOLAR"
"454","2018","AZ","Waddell","7164","Central Arizona Water Conservation Dist","2850","Maricopa","33.8447","-112.2714","4","HYDRO"
"455","2018","AZ","Walmart Casa Grande","57939","Tesla Inc.","60947","Pinal","32.866837","-111.771751","2","SOLAR"
"456","2018","AZ","Western Renewable Energy","56358","Western Renewable Energy LLC","54690","Apache","34.093006","-109.289979","1","BIOMASS"
"457","2018","AZ","White Wing Solar","60572","First Solar Project Development","56615","Yuma","32.994056","-113.508806","1","SOLAR"
"458","2018","AZ","Yucca Power Plant","120","Arizona Public Service Co","803","Yuma","32.7214","-114.7106","3","GAS"
"459","2018","AZ","Yuma Cogeneration Associates","54694","Falcon Power Operating Company","49919","Yuma","32.728822","-114.654053","1","GAS"
"460","2018","CA","1420 Coil Av #C","57310","Konoike Pacific","57320","Los Angeles","33.794283","-118.241405","1","SOLAR"
"461","2018","CA","2081 Terzian Solar Project","58918","Solarenewal LLC","61315","Fresno","36.67","-119.415833","1","SOLAR"
"462","2018","CA","2097 Helton Solar Project","58920","Solarenewal LLC","61315","Merced","37.352222","-120.506944","1","SOLAR"
"463","2018","CA","2127 Harris Solar Project","58919","Solarenewal LLC","61315","Butte","39.291667","-121.669722","1","SOLAR"
"464","2018","CA","2555 E Olympic Bl","57871","Los Angeles Department of Water & Power","11208","Los Angeles","34.026944","-118.224167","1","SOLAR"
"465","2018","CA","85 A","52162","Tehachapi Wind Wall, LLC","62092","Kern","35.1011","-118.3372","1","WIND"
"466","2018","CA","85 B","52163","Tehachapi Wind Wall, LLC","62092","Kern","35.1011","-118.3372","1","WIND"
"467","2018","CA","A G Wishon","293","Pacific Gas & Electric Co.","14328","Madera","37.15105","-119.504724","4","HYDRO"
"468","2018","CA","ABEC #2 dba West-Star Dairy","61501","ABEC #2 LLC","61105","Kern","35.472113","-119.432866","1","BIOMASS"
"469","2018","CA","ABEC #3 dba Lakeview Dairy","61502","ABEC #3 LLC","61106","Kern","35.21426","-119.202974","1","BIOMASS"
"470","2018","CA","ABEC #4 dba CE&S Dairy","61503","ABEC #4 LLC","61107","Kern","35.17306","-119.116384","1","BIOMASS"
"471","2018","CA","ABEC Bidart-Old River LLC","58699","ABEC Bidart-Old River LLC","58628","Kern","35.169722","-119.105556","2","BIOMASS"
"472","2018","CA","Acorn I Energy Storage LLC","62874","Acorn I Energy Storage LLC","62747","Ventura","34.196505","-118.931898","1","OTHF"
"473","2018","CA","Adelanto Solar II, LLC","59440","Adelanto Solar II, LLC","59212","San Bernardino","34.557222","-117.3775","1","SOLAR"
"474","2018","CA","Adelanto Solar Project","57305","Los Angeles Department of Water & Power","11208","San Bernardino","34.550833","-117.435277","1","SOLAR"
"475","2018","CA","Adelanto Solar, LLC","59441","Adelanto Solar, LLC","59211","San Bernardino","34.557222","-117.3775","1","SOLAR"
"476","2018","CA","Adera Solar","60027","Sustainable Power Group, LLC","58661","Madera","37.120586","-120.32488","1","SOLAR"
"477","2018","CA","Adobe San Jose","57811","Bloom Energy","57128","Santa Clara","37.330556","-121.893056","2","GAS"
"478","2018","CA","Adobe Solar","57651","Southern Power Co","17650","KERN","35.102778","-118.954444","1","SOLAR"
"479","2018","CA","Aera San Ardo Cogen Facility","55184","Aera Energy LLC-San Ardo","24536","Monterey","35.953293","-120.859952","2","GAS"
"480","2018","CA","Aera South Belridge Cogen Facility","55185","AERA Energy LLC","164","Kern","35.4292","-119.6864","3","GAS"
"481","2018","CA","Aerojet I","57697","Altus Power America Management, LLC","60281","Sacramento","38.613508","-121.162879","1","SOLAR"
"482","2018","CA","Aerojet II","57698","Altus Power America Management, LLC","60281","Sacramento","38.6086","-121.1703","1","SOLAR"
"483","2018","CA","Aerolease","61718","PCS Energy, LLC","61348","Los Angeles","34.189857","-118.451355","1","SOLAR"
"484","2018","CA","AES Alamitos","315","AES Alamitos LLC","22148","Los Angeles","33.7688","-118.1009","6","GAS"
"485","2018","CA","AES Alamitos Energy Center","62115","AES Alamitos Energy, LLC","61669","Los Angeles","33.767229","-118.100194","3","GAS"
"486","2018","CA","AES ES ALAMITOS, LLC","61204","AES ES Alamitos, LLC","62160","Los Angeles","33.770202","-118.099665","1","OTHF"
"487","2018","CA","AES Huntington Beach","335","AES Huntington Beach LLC","23693","Orange","33.6439","-117.9792","2","GAS"
"488","2018","CA","AES Huntington Beach Energy Project","62116","AES Huntington Beach Energy, LLC","61670","Orange","33.645618","-117.979372","3","GAS"
"489","2018","CA","AES Redondo Beach","356","AES Redondo Beach LLC","22484","Los Angeles","33.8504","-118.395","4","GAS"
"490","2018","CA","Agnews Power Plant","50748","OLS Energy-Agnews Inc.","2871","Santa Clara","37.4058","-121.9272","2","GAS"
"491","2018","CA","Agua Mansa Power","55951","E I Colton LLC","5532","San Bernardino","34.0414","-117.3603","1","GAS"
"492","2018","CA","Aidlin Geothermal Power Plant","52158","Geysers Power Co LLC","7160","Sonoma","38.8339","-122.881","2","GEOTHERMAL"
"493","2018","CA","Alameda","7450","Northern California Power Agny","40613","Alameda","37.7886","-122.2889","2","GAS"
"494","2018","CA","Alamo","905","California Dept. of Water Resources","3255","Los Angeles","34.8158","-118.6867","1","HYDRO"
"495","2018","CA","Alamo Solar","59469","Dominion Renewable Energy","58468","San Bernardino","34.682222","-117.3475","1","SOLAR"
"496","2018","CA","Algonquin Power Sanger","57564","Algonquin Power Sanger LLC","56905","Fresno","36.6842","-119.5522","1","GAS"
"497","2018","CA","Algonquin SKIC 10 Solar, LLC","60242","Algonquin Power Co","59050","Kern","35.126111","-119.243361","1","SOLAR"
"498","2018","CA","Algonquin SKIC20 Solar LLC","59412","Algonquin Power Co","59050","Kern","35.126111","-119.243333","1","SOLAR"
"499","2018","CA","Almond","62546","Westlands Almond LLC","62048","Kings","36.21222","-119.91","1","SOLAR"
"500","2018","CA","Almond Power Plant","7315","Turlock Irrigation District","19281","Stanislaus","37.5744","-120.985","4","GAS"
"501","2018","CA","Alpaugh 50","58003","Consolidated Edison Development Inc.","56769","Tulare","35.898333","-119.435278","1","SOLAR"
"502","2018","CA","Alpaugh North","58002","Consolidated Edison Development Inc.","56769","Tulare","35.9025","-119.442778","1","SOLAR"
"503","2018","CA","Alpine Solar","57295","NRG Solar Alpine","59397","Los Angeles","34.7892","-118.5047","2","SOLAR"
"504","2018","CA","Alta Mesa Project Phase IV","55352","Mark Technologies Corp","11664","Riverside","33.946389","-116.663333","1","WIND"
"505","2018","CA","Alta Powerhouse","214","Pacific Gas & Electric Co.","14328","Placer","39.215979","-120.80355","2","HYDRO"
"506","2018","CA","Alta Wind Energy Center I","57282","NRG Yield LLC","60015","Kern","35.033725","-118.353422","1","WIND"
"507","2018","CA","Alta Wind Energy Center II","57291","NRG Yield LLC","60015","Kern","35.023889","-118.295278","1","WIND"
"508","2018","CA","Alta Wind Energy Center III","57292","NRG Yield LLC","60015","Kern","35.023889","-118.295278","1","WIND"
"509","2018","CA","Alta Wind Energy Center IV","57293","NRG Yield LLC","60015","Kern","35.008611","-118.242222","1","WIND"
"510","2018","CA","Alta Wind Energy Center V","57294","NRG Yield LLC","60015","Kern","35.008611","-118.242222","1","WIND"
"511","2018","CA","Alta Wind VIII","57835","Brookfield Energy Marketing LP","11556","Kern","35.026683","-118.234811","1","WIND"
"512","2018","CA","Alta Wind X","58394","NRG Yield LLC","60015","Kern","35.06","-118.2","1","WIND"
"513","2018","CA","Alta Wind XI","58395","NRG Yield LLC","60015","Kern","35.065","-118.39","1","WIND"
"514","2018","CA","AltaGas Pomona Energy Inc.","50300","AltaGas Pomona Energy Inc.","54736","Los Angeles","34.059444","-117.774167","2","OTHF"
"515","2018","CA","AltaGas Ripon Energy Inc.","50299","AltaGas Ripon Energy Inc.","60134","San Joaquin","37.732533","-121.116006","1","GAS"
"516","2018","CA","Altamont Gas Recovery","50571","WM Renewable Energy LLC","54842","Alameda","37.749308","-121.649866","4","BIOMASS"
"517","2018","CA","Altamont Midway Ltd","50001","Sustainable Power Group, LLC","58661","San Joaquin","37.7392","-121.4322","1","WIND"
"518","2018","CA","Altech III","50485","Terra-Gen Operating Co-Wind","2770","Riverside","33.915023","-116.555064","2","WIND"
"519","2018","CA","Alvarado Hydro Facility","54242","San Diego County Water Auth","27075","San Diego","32.7814","-117.0411","1","HYDRO"
"520","2018","CA","Amazon - Patterson PV","61377","AES Distributed Energy","61012","Stanislaus","37.468888","-121.166326","1","SOLAR"
"521","2018","CA","Amazon San Bernardino","59800","Bloom Energy","57128","San Bernardino","34.088408","-117.245839","1","GAS"
"522","2018","CA","Amedee Geothermal Venture I","50964","Amedee Gethrm Venture I LP","472","Lassen","40.300833","-120.105","2","GEOTHERMAL"
"523","2018","CA","Ameresco Butte County","57771","Ameresco Butte County LLC","57079","Butte","39.674","-121.73","1","BIOMASS"
"524","2018","CA","Ameresco Chiquita Canyon","56898","AMERESCO Chiquita Canyon LLC","56104","Los Angeles","34.431664","-118.642855","2","BIOMASS"
"525","2018","CA","Ameresco Forward","58437","Ameresco Forward, LLC","58433","San Joaquin","37.883406","-121.185104","2","BIOMASS"
"526","2018","CA","Ameresco Johnson Canyon","58397","Ameresco Johnson Canyon LLC","58382","Monterey","36.534167","-121.408611","1","BIOMASS"
"527","2018","CA","Ameresco Keller Canyon","56897","AMERESCO Keller Canyon LLC","56103","Contra Costa","38.003928","-121.934491","2","BIOMASS"
"528","2018","CA","Ameresco Ox Mountain","56895","AMERESCO Ox Mountain Energy LLC","56101","San Mateo","37.5","-122.4","6","BIOMASS"
"529","2018","CA","Ameresco San Joaquin","58436","Ameresco San Joaquin, LLC","58432","San Joaquin","38.029722","-120.929722","2","BIOMASS"
"530","2018","CA","Ameresco Santa Cruz Energy","56428","AMERESCO Santa Cruz Energy LLC","54814","Santa Cruz","36.9178","-121.8156","3","BIOMASS"
"531","2018","CA","Ameresco Vasco Road","58435","Ameresco Vasco Road, LLC","58431","Alameda","37.754444","-121.728889","2","BIOMASS"
"532","2018","CA","American Canyon Solar","62687","RP Napa Solar 1, LLC","62162","Napa","38.160858","-122.214014","3","SOLAR"
"533","2018","CA","American Kings Solar, LLC","60777","First Solar Project Development","56615","Kings","36.24","-119.898","1","SOLAR"
"534","2018","CA","Ampersand Chowchilla Biomass LLC","56706","Ampersand Chowchilla Biomass LLC","55953","Madera","37.106668","-120.248504","1","BIOMASS"
"535","2018","CA","Anaheim Combustion Turbine","7693","City of Anaheim - (CA)","590","Orange","33.853542","-117.856286","1","GAS"
"536","2018","CA","Anaheim Solar Energy Plant","59416","Anaheim Public Utilities","59187","Orange","33.8025","-117.919722","1","SOLAR"
"537","2018","CA","Angels","215","Utica Water & Power Authority","19586","Calaveras","38.071944","-120.539444","1","HYDRO"
"538","2018","CA","Anheuser-Busch #2","59331","Foundation CA Fund VII Manager, LLC","59129","Solano","38.233611","-122.0925","1","WIND"
"539","2018","CA","Antelope Big Sky Ranch","60279","Sustainable Power Group, LLC","58661","Los Angeles","34.694839","-118.28769","1","SOLAR"
"540","2018","CA","Antelope DSR 1","60186","Sustainable Power Group, LLC","58661","Los Angeles","34.655556","-118.280722","1","SOLAR"
"541","2018","CA","Antelope DSR 2","60187","Sustainable Power Group, LLC","58661","Los Angeles","34.686944","-118.311722","1","SOLAR"
"542","2018","CA","Antelope DSR 3","61265","Antelope DSR 3 LLC","60877","Los Angeles","34.736859","-118.304071","1","SOLAR"
"543","2018","CA","Antelope Expansion 1B","62320","Antelope Expansion 1B, LLC","61825","Los Angeles","34.71611","-118.259161","1","SOLAR"
"544","2018","CA","Antelope Expansion 2","61264","Sustainable Power Group, LLC","58661","Los Angeles","34.744977","-118.309153","1","SOLAR"
"545","2018","CA","Antelope Expansion 3A","62673","Antelope Expansion 3A, LLC","62119","Los Angeles","34.728902","-118.322051","1","SOLAR"
"546","2018","CA","Antelope Expansion 3B","62674","Antelope Expansion 3B, LLC","62118","Los Angeles","34.720162","-118.322532","1","SOLAR"
"547","2018","CA","AP North Lake I, LP","59610","AP North Lake I, LP","59353","Riverside","33.74","-117.010556","1","SOLAR"
"548","2018","CA","APP Prune A-D","62577","Bloom Energy","57128","Santa Clara","37.331666","-122.006686","4","GAS"
"549","2018","CA","Apple Campus 2 Fuel Cell","59557","Apple, Inc","57369","Santa Clara","37.33","-122.01","1","BIOMASS"
"550","2018","CA","Apple Campus 2 PV","59473","Apple, Inc","57369","Santa Clara","37.33","-122.01","1","SOLAR"
"551","2018","CA","Aquamarine","62547","Aquamarine Westside LLC","62049","Kings","36.189722","-119.904166","1","SOLAR"
"552","2018","CA","Argus Cogen Plant","10684","Searles Valley Minerals Operations Inc.","49968","San Bernardino","35.765","-117.3833","3","COAL"
"553","2018","CA","Arrache 4006","58445","CD US Solar MT 2 LLC","58440","Los Angeles","34.655","-118.051111","2","SOLAR"
"554","2018","CA","Arrache 4013","58446","CD US Solar MT 2 LLC","58440","Los Angeles","34.650556","-118.051944","1","SOLAR"
"555","2018","CA","Arrache 8083","58447","CD US Solar MT 2 LLC","58440","Los Angeles","34.647778","-118.061111","3","SOLAR"
"556","2018","CA","Aspiration G","59737","Sustainable Power Group, LLC","58661","Fresno","36.552186","-120.352481","1","SOLAR"
"557","2018","CA","ASTI","58889","Perpetual Energy Systems","58759","Sonoma","38.761389","-122.975278","1","SOLAR"
"558","2018","CA","AT&T Anaheim","61154","Bloom Energy","57128","Orange","33.836439","-117.916893","1","GAS"
"559","2018","CA","AT&T Holger","61153","Bloom Energy","57128","Santa Clara","37.417638","-121.94453","1","GAS"
"560","2018","CA","ATT  Kelvin","62573","Bloom Energy","57128","Orange","33.684675","-117.836821","1","GAS"
"561","2018","CA","ATT Van Nyus","62574","Bloom Energy","57128","Los Angeles","34.196324","-118.448225","1","GAS"
"562","2018","CA","Atwell Island","58366","SPS Atwell Island LLC","58355","Tulare","35.895","-119.510833","1","SOLAR"
"563","2018","CA","Atwell Island West Solar","59414","Consolidated Edison Development Inc.","56769","Tulare","35.815","-119.459722","1","SOLAR"
"564","2018","CA","AV Solar Ranch One","57378","AV Solar Ranch 1 LLC","56722","Los Angeles","34.780278","-118.42444","1","SOLAR"
"565","2018","CA","Avenal Park","57359","Avenal Solar Holdings LLC","56700","Kings","35.989722","-120.11","1","SOLAR"
"566","2018","CA","AVS Lancaster 1","60085","Tesla Inc.","60947","Los Angeles","34.748894","-117.973571","1","SOLAR"
"567","2018","CA","Axium Modesto Solar","58039","Axium US Solar Holdings LLC","60898","Stanislaus","37.734167","-120.995556","1","SOLAR"
"568","2018","CA","Azusa","6449","City of Pasadena - (CA)","14534","Los Angeles","34.1548","-117.9093","1","HYDRO"
"569","2018","CA","B Braun Medical","50200","B Braun Medical Inc","1058","Orange","33.688721","-117.834793","2","GAS"
"570","2018","CA","Badger Creek Limited","10650","WCAC Operating Company","60662","Kern","35.483736","-119.029856","1","GAS"
"571","2018","CA","Baker Creek Hydroelectric","59428","Baker Station Associates, LP","59205","Humboldt","40.526389","-123.725556","2","HYDRO"
"572","2018","CA","Bakersfield 111","59948","Bakersfield 111 LLC","59711","Kern","35.317551","-118.989894","1","SOLAR"
"573","2018","CA","Bakersfield College Solar 01","57655","Kern Community College District","56982","Kern","35.411817","-118.96864","1","SOLAR"
"574","2018","CA","Bakersfield Industrial PV 1","61118","Bakersfield Industrial PV 1, LLC","60730","Kern","35.330032","-118.993119","1","SOLAR"
"575","2018","CA","Bakersfield PV 1","61117","Bakersfield PV 1, LLC","60729","Kern","35.324982","-118.981522","1","SOLAR"
"576","2018","CA","Balch 1","217","Pacific Gas & Electric Co.","14328","Fresno","36.909137","-119.087712","1","HYDRO"
"577","2018","CA","Balch 2","218","Pacific Gas & Electric Co.","14328","Fresno","36.908907","-119.087556","2","HYDRO"
"578","2018","CA","Barre Generating Station","56474","Southern California Edison Co","17609","Orange","33.8073","-117.9832","1","GAS"
"579","2018","CA","Bayshore Solar A, LLC","60481","Sustainable Power Group, LLC","58661","Los Angeles","34.667817","-118.298089","1","SOLAR"
"580","2018","CA","Bayshore Solar B, LLC","60474","Sustainable Power Group, LLC","58661","Los Angeles","34.678305","-118.302649","1","SOLAR"
"581","2018","CA","Bayshore Solar C, LLC","60475","Sustainable Power Group, LLC","58661","Los Angeles","34.681338","-118.314087","1","SOLAR"
"582","2018","CA","Beacon BESS 1","61431","Los Angeles Department of Water & Power","11208","Kern","35.256526","-118.027519","1","OTHF"
"583","2018","CA","Beacon Solar Plant Site 2","59309","CD Global Solar Holdings, LLC","60865","Kern","35.265833","-117.999167","1","SOLAR"
"584","2018","CA","Beacon Solar Plant Site 5","59308","CD Global Solar Holdings, LLC","60865","Kern","35.248889","-118.034444","1","SOLAR"
"585","2018","CA","Bear Canyon Power Plant","10469","Geysers Power Co LLC","7160","Lake","38.762968","-122.692915","2","GEOTHERMAL"
"586","2018","CA","Bear Creek","50156","CHI-West Inc","3663","Shasta","40.534454","-121.959109","1","HYDRO"
"587","2018","CA","Bear Creek Solar","58508","Ecos Energy LLC","58135","San Joaquin","38.136389","-121.148889","1","SOLAR"
"588","2018","CA","Bear Mountain Limited","10649","WCAC Operating Company","60662","Kern","35.419181","-118.926643","1","GAS"
"589","2018","CA","Bear Valley","457","City of Escondido - (CA)","5969","San Diego","33.166246","-117.016566","2","HYDRO"
"590","2018","CA","Bear Valley Power Plant","56346","Golden State Water Company","54710","San Bernardino","34.2506","-116.9025","7","GAS"
"591","2018","CA","Beardsley","414","Oakdale&South San Joaquin Irrigation D.","13935","Tuolumne","38.202569","-120.076983","1","HYDRO"
"592","2018","CA","Belden","219","Pacific Gas & Electric Co.","14328","Plumas","40.007445","-121.249438","1","HYDRO"
"593","2018","CA","Beringer","58890","Perpetual Energy Systems","58759","Sonoma","38.510833","-122.479722","1","SOLAR"
"594","2018","CA","Berry Cogen","50170","Berry Petroleum Co","1569","Kern","35.093046","-119.443617","1","GAS"
"595","2018","CA","Berry Cogen Tanne Hills 18","50622","Berry Petroleum Co","1569","Kern","35.089829","-119.440881","2","GAS"
"596","2018","CA","Berry NMW Cogens","62176","Berry Petroleum Co","1569","Kern","35.307555","-119.611551","2","GAS"
"597","2018","CA","Berry Placerita Cogen","52096","Berry Petroleum Co","1569","Los Angeles","34.38407","-118.494882","2","GAS"
"598","2018","CA","Bidwell Ditch Project","10880","Mega Renewables","12239","Shasta","40.8014","-121.4481","1","HYDRO"
"599","2018","CA","Big Creek 1","317","Southern California Edison Co","17609","Fresno","37.2042","-119.2396","4","HYDRO"
"600","2018","CA","Big Creek 2","318","Southern California Edison Co","17609","Fresno","37.2","-119.3069","4","HYDRO"
"601","2018","CA","Big Creek 2A","322","Southern California Edison Co","17609","Fresno","37.200062","-119.30681","2","HYDRO"
"602","2018","CA","Big Creek 3","319","Southern California Edison Co","17609","Fresno","37.148517","-119.386623","5","HYDRO"
"603","2018","CA","Big Creek 4","320","Southern California Edison Co","17609","Madera","37.139","-119.4898","2","HYDRO"
"604","2018","CA","Big Creek 8","321","Southern California Edison Co","17609","Fresno","37.2096","-119.3289","2","HYDRO"
"605","2018","CA","Big Creek Water Works","10282","Big Creek Water Works Ltd","1678","Trinity","40.646733","-123.498008","1","HYDRO"
"606","2018","CA","Big Pine Creek","391","Los Angeles Department of Water & Power","11208","Inyo","37.142795","-118.324075","1","HYDRO"
"607","2018","CA","Big Valley Power LLC","10288","Big Valley Power (BVP) LLC","56497","Lassen","41.1325","-121.137222","1","BIOMASS"
"608","2018","CA","Biola University","54296","Biola University","1752","Los Angeles","33.906953","-118.013105","6","GAS"
"609","2018","CA","Bishop Creek 2","323","Southern California Edison Co","17609","Inyo","37.273581","-118.573339","3","HYDRO"
"610","2018","CA","Bishop Creek 3","324","Southern California Edison Co","17609","Inyo","37.301962","-118.531957","3","HYDRO"
"611","2018","CA","Bishop Creek 4","325","Southern California Edison Co","17609","Inyo","37.323035","-118.501714","5","HYDRO"
"612","2018","CA","Bishop Creek 5","326","Southern California Edison Co","17609","Inyo","37.3344","-118.4797","2","HYDRO"
"613","2018","CA","Bishop Creek 6","327","Southern California Edison Co","17609","Inyo","37.3499","-118.4628","1","HYDRO"
"614","2018","CA","Black Butte","7229","City of Santa Clara - (CA)","16655","Tehama","39.814905","-122.332335","1","HYDRO"
"615","2018","CA","Black Rock I","57477","CE Obsidian Energy LLC","56794","Imperial","33.1594","-115.6144","1","GEOTHERMAL"
"616","2018","CA","Black Rock II","57478","CE Obsidian Energy LLC","56794","Imperial","33.1594","-115.6144","1","GEOTHERMAL"
"617","2018","CA","Black Rock III","57479","CE Obsidian Energy LLC","56794","Imperial","33.1594","-115.6144","1","GEOTHERMAL"
"618","2018","CA","Blacksand Generating Facility","56090","Bridge Energy LLC","61143","Orange","33.9328","-117.855","3","OTHF"
"619","2018","CA","Blackwell Solar Park","59524","Consolidated Edison Development Inc.","56769","Kern","35.604167","-119.849722","1","SOLAR"
"620","2018","CA","Blue Lake Power LLC","10764","Blue Lake Power LLC","56120","Humboldt","40.8786","-123.9942","1","BIOMASS"
"621","2018","CA","Blue Shld Of Cal- El Dorado Hlls Mtr B","62077","Tesla Inc.","60947","El Dorado","38.650627","-121.074115","1","SOLAR"
"622","2018","CA","Blythe Energy","55295","AltaGas Blythe Operations Inc","58453","Riverside","33.6157","-114.6865","2","GAS"
"623","2018","CA","Blythe Solar 110, LLC","60093","Blythe Solar 110, LLC","59842","Riverside","33.68","-114.742","3","SOLAR"
"624","2018","CA","Blythe Solar II, LLC","60092","Blythe Solar II, LLC","59843","Riverside","33.68","-114.73","4","SOLAR"
"625","2018","CA","Blythe Solar III, LLC","60094","Blythe Solar III, LLC","59844","Riverside","33.656","-114.742","4","SOLAR"
"626","2018","CA","Blythe Solar IV, LLC","60095","Blythe Solar IV, LLC","59845","Riverside","33.682","-114.768","4","SOLAR"
"627","2018","CA","Bolthouse Farms Fuel Cell","61845","Bakersfield Fuel Cell 1, LLC","61466","Kern","35.355114","-118.928146","2","GAS"
"628","2018","CA","Bolthouse S&P and Rowen Farms Solar","56862","MMA WBF Power LP","56105","Los Angeles","34.5644","-117.6933","4","SOLAR"
"629","2018","CA","Borden Solar Farm","59531","41MB 8me, LLC","59272","Madera","36.941111","-119.96","1","SOLAR"
"630","2018","CA","Borel","328","Southern California Edison Co","17609","Kern","35.588069","-118.524804","3","HYDRO"
"631","2018","CA","Borrego Springs Energy Storage","60565","SDGE Batteries","60336","San Diego","33.27011","-116.3496","2","OTHF"
"632","2018","CA","Bottle Rock Power","902","Bottle Rock Power LLC","56589","Lake","38.8348","-122.7677","1","GEOTHERMAL"
"633","2018","CA","Bowerman Power LFG, LLC","59461","Bowerman Power LFG, LLC","59228","Orange","33.718889","-117.702222","7","BIOMASS"
"634","2018","CA","Bowman","50546","Nevada Irrigation District","13402","Nevada","39.448352","-120.653417","1","HYDRO"
"635","2018","CA","Box Canyon Dam","50179","Siskiyou Power Authority","58896","Siskiyou","41.2792","-122.3292","2","HYDRO"
"636","2018","CA","BP Carson Refinery","50540","Tesoro Carson Refinery","2696","Los Angeles","33.8153","-118.2358","2","OFSL"
"637","2018","CA","Brawley","383","Imperial Irrigation District","9216","Imperial","32.968889","-115.534444","2","OIL"
"638","2018","CA","Brea Expansion Plant","58007","Brea Power II","57384","Orange","33.932022","-117.840233","8","BIOMASS"
"639","2018","CA","Britton Powerhouse","56820","Pacific Gas & Electric Co.","14328","Shasta","41.021389","-121.675","1","HYDRO"
"640","2018","CA","Broadridge Cogen","57580","Broadridge Customer Communications","56917","El Dorado","38.6183","-121.0564","4","GAS"
"641","2018","CA","Broadway (CA)","420","City of Pasadena - (CA)","14534","Los Angeles","34.1254","-118.148","3","GAS"
"642","2018","CA","Brookfield Tehachapi 1","57962","Consolidated Edison Development Inc.","56769","Kern","35.008333","-118.241389","1","WIND"
"643","2018","CA","Buckeye Geothermal Power Plant","57180","Calpine Corporation","7277","Lake","38.8242","-122.84","1","GEOTHERMAL"
"644","2018","CA","Bucks Creek","220","Pacific Gas & Electric Co.","14328","Plumas","39.91062","-121.327692","2","HYDRO"
"645","2018","CA","Buena Vista Biomass Power","58472","Buena Vista Biomass LLC","58460","Amador","38.277778","-120.913611","1","BIOMASS"
"646","2018","CA","Buena Vista Energy LLC","56446","Leeward Asset Management, LLC","50123","Contra Costa","37.805","-121.6672","1","WIND"
"647","2018","CA","Buidling L","60154","Golden Springs Development Company LLC","57104","Los Angeles","33.912917","-118.041944","1","SOLAR"
"648","2018","CA","Building F","60151","Golden Springs Development Company LLC","57104","Los Angeles","33.914356","-118.050189","1","SOLAR"
"649","2018","CA","Building G","60153","Golden Springs Development Company LLC","57104","Los Angeles","33.912917","-118.050561","1","SOLAR"
"650","2018","CA","Burney Creek","10706","Snow Mountain Hydro LLC","17725","Shasta","40.8579","-121.7225","1","HYDRO"
"651","2018","CA","Burney Forest Products","10652","North American Energy Services","2565","Shasta","40.879719","-121.720342","2","BIOMASS"
"652","2018","CA","Butt Valley","221","Pacific Gas & Electric Co.","14328","Plumas","40.175656","-121.190663","1","HYDRO"
"653","2018","CA","Butte College Main Campus Solar","57970","Butte-Glenn Community College District","57345","Butte","39.648056","-121.644167","1","SOLAR"
"654","2018","CA","C P Kelco San Diego Plant","52147","CPKelco U S Inc","3221","San Diego","32.6947","-117.1436","3","GAS"
"655","2018","CA","C&H Sugar Plant","58251","C&H Sugar Company Inc","58223","Contra Costa","38.057222","-122.218889","2","OTHF"
"656","2018","CA","CA Dept of Public Health at Richmond","60428","California PV Energy LLC","58540","Contra Costa","37.92","-122.344","1","SOLAR"
"657","2018","CA","CA Flats Solar 130, LLC","60033","California Flats Solar 130, LLC","61423","San Luis Obispo","35.615573","-120.404352","1","SOLAR"
"658","2018","CA","CA Flats Solar 150, LLC","60034","CD Arevon USA, Inc.","61230","San Luis Obispo","35.615573","-120.404352","1","SOLAR"
"659","2018","CA","Cabazon Wind Partners","56011","Shell Wind Energy Inc.","17058","Riverside","33.9172","-116.735","1","WIND"
"660","2018","CA","Cabrillo Power I Encina Power Station","302","NRG Cabrillo Power Ops Inc","13960","San Diego","33.1361","-117.3364","9","GAS"
"661","2018","CA","Calabasas Gas to Energy Facility","57163","Los Angeles County Sanitation","11217","Los Angeles","34.1511","-118.7236","3","BIOMASS"
"662","2018","CA","California Institute of Technology","10262","California Institute-Technology","2848","Los Angeles","34.138467","-118.1256","7","GAS"
"663","2018","CA","California PV Energy at ISD WWTP","59283","California PV Energy LLC","58540","Contra Costa","38.001111","-121.703889","1","SOLAR"
"664","2018","CA","California State University San Bernardi","57544","Southern California Edison Co","17609","San Bernardino","34.185833","-117.324167","1","GAS"
"665","2018","CA","California Valley Solar Ranch","57439","NRG Renew Operation & Maintenance, LLC","56762","San Luis Obispo","35.323739","-119.91663","5","SOLAR"
"666","2018","CA","Calipatria Solar Farm","59088","Southern Power Co","17650","Imperial","33.165833","-115.532222","1","SOLAR"
"667","2018","CA","Calistoga Power Plant","50066","Geysers Power Co LLC","7160","Lake","38.7879","-122.7434","2","GEOTHERMAL"
"668","2018","CA","CalPeak Power - Border","55510","Calpeak Operating Services, LLC","59527","San Diego","32.562448","-116.943869","2","GAS"
"669","2018","CA","CalPeak Power - Enterprise","55513","Calpeak Operating Services, LLC","59527","San Diego","33.121943","-117.117441","2","GAS"
"670","2018","CA","CalPeak Power - Panoche","55508","Wellhead Energy, LLC","20323","Fresno","36.6535","-120.5783","2","GAS"
"671","2018","CA","CalPeak Power - Vaca Dixon","55499","Calpeak Operating Services, LLC","59527","Solano","38.398867","-121.923973","2","GAS"
"672","2018","CA","Calpine Gilroy Cogen, LP","10034","Calpine Gilroy Cogen LP","3028","Santa Clara","37.0001","-121.5367","1","GAS"
"673","2018","CA","Calpine Sutter Energy Center","55112","Calpine Corp-Sutter","22650","Sutter","39.053139","-121.695873","2","GAS"
"674","2018","CA","CalRenew-1","56768","CalRenew-1 LLC","55961","Fresno","36.7575","-120.3658","1","SOLAR"
"675","2018","CA","Caltech Central","57460","Bloom Energy 2009 PPA","56778","Los Angeles","34.1358","-118.1267","11","BIOMASS"
"676","2018","CA","Camanche","537","East Bay Municipal Util Dist","5571","San Joaquin","38.2268","-121.0245","3","HYDRO"
"677","2018","CA","Cameron Ridge LLC","10586","Terra-Gen Operating Co-Wind","2770","Kern","35.075","-118.3158","1","WIND"
"678","2018","CA","Camino","430","Sacramento Municipal Util Dist","16534","El Dorado","38.82881","-120.537089","2","HYDRO"
"679","2018","CA","Camp Far West","531","Sacramento Municipal Util Dist","16534","Placer","39.048802","-121.316966","1","HYDRO"
"680","2018","CA","Campo Verde Solar","58467","Southern Power Co","17650","Imperial","32.753333","-115.726389","1","SOLAR"
"681","2018","CA","Cantua Solar Station","57522","Pacific Gas & Electric Co.","14328","Fresno","36.425085","-120.343543","1","SOLAR"
"682","2018","CA","Canyon Crest Academy","60568","SDGE Batteries","60336","San Diego","32.95907","-117.191622","1","OTHF"
"683","2018","CA","Canyon Power Plant","57027","City of Anaheim - (CA)","590","Orange","33.858056","-117.861667","4","GAS"
"684","2018","CA","Caribou 1","222","Pacific Gas & Electric Co.","14328","Plumas","40.085476","-121.148241","3","HYDRO"
"685","2018","CA","Caribou 2","223","Pacific Gas & Electric Co.","14328","Plumas","40.085997","-121.149373","2","HYDRO"
"686","2018","CA","Carlsbad Energy Center","59002","NRG California Peaker Operations LLC","58847","San Diego","33.140507","-117.333916","6","GAS"
"687","2018","CA","Carson Cogeneration","7527","Sacramento Municipal Util Dist","16534","Sacramento","38.445681","-121.462387","2","GAS"
"688","2018","CA","Carson Cogeneration Company","10169","Carson Cogeneration Co","3084","Los Angeles","33.8759","-118.2491","1","GAS"
"689","2018","CA","Cascade Energy Storage, LLC","61801","Enel Green Power NA, Inc.","59380","San Joaquin","37.920124","-121.239242","1","OTHF"
"690","2018","CA","Cascade Solar","58590","Cascade Solar LLC","58546","San Bernardino","34.157222","-116.234444","1","SOLAR"
"691","2018","CA","Castaic","392","Los Angeles Department of Water & Power","11208","Los Angeles","34.587237","-118.656638","7","HYDRO"
"692","2018","CA","Castle Rock Vineyards","57870","Castle Rock Cooling","57213","Tulare","35.801111","-119.110556","1","SOLAR"
"693","2018","CA","Castor Solar","60277","ZGlobal Inc","60059","Kern","35.211044","-119.387258","1","SOLAR"
"694","2018","CA","Catalina Solar 2, LLC","59334","Dominion Renewable Energy","58468","Kern","34.812222","-118.352778","1","SOLAR"
"695","2018","CA","Catalina Solar LLC","57708","EDF Renewable Asset Holdings, Inc.","57170","Kern","34.938261","-118.334492","1","SOLAR"
"696","2018","CA","CBS Studio Center","58440","Crestmark Bank","59413","Los Angeles","34.145","-118.390833","6","GAS"
"697","2018","CA","CBS Television City","58253","CBS Broadcasting, Inc.","61247","Los Angeles","34.075","-118.36","1","SOLAR"
"698","2018","CA","CCCSD Wastewater Treatment Plnt","57573","Central Contra Costa Sanitary District","56914","Contra Costa","37.9978","-122.0697","1","GAS"
"699","2018","CA","CDCR (CA) - Corcoran State Prison","61620","SunE Corcoran SP Owner, LLC","61225","Kings","36.06502","-119.55756","1","SOLAR"
"700","2018","CA","CDCR (CA) - Pleasant Valley State Prison","59748","Team-Solar, Inc.","59512","Fresno","36.137219","-120.224445","1","SOLAR"
"701","2018","CA","CDCR (CA) - Solano State Prison","61619","SunE Solano SP Owner, LLC","61224","Solano","38.32272","-121.97062","1","SOLAR"
"702","2018","CA","CDCR (CA) - Wasco State Prison","61621","SunE Wasco SP Owner, LLC","61226","Kern","35.60053","-119.40366","1","SOLAR"
"703","2018","CA","CE Leathers","10631","CalEnergy Operating Corporation","49899","Imperial","33.1779","-115.565","1","GEOTHERMAL"
"704","2018","CA","CE Turbo LLC","55984","CalEnergy Operating Corporation","49899","Imperial","33.1669","-115.5114","1","GEOTHERMAL"
"705","2018","CA","CE&P Imperial Valley 1","60670","California Ethanol Power, LLC","60395","Imperial","32.912778","-115.518333","1","OTHF"
"706","2018","CA","CED Avenal","60077","Consolidated Edison Development Inc.","56769","Kings","35.996324","-120.15146","1","SOLAR"
"707","2018","CA","CED Ducor 1","60078","Consolidated Edison Development Inc.","56769","Tulare","35.856278","-119.068414","1","SOLAR"
"708","2018","CA","CED Ducor 2","60079","Consolidated Edison Development Inc.","56769","Tulare","35.844167","-119.068069","1","SOLAR"
"709","2018","CA","CED Ducor 3","60080","Consolidated Edison Development Inc.","56769","Tulare","35.845378","-119.056992","1","SOLAR"
"710","2018","CA","CED Ducor 4","60081","Consolidated Edison Development Inc.","56769","Tulare","35.850403","-119.026992","1","SOLAR"
"711","2018","CA","Center Generating Station","56475","Southern California Edison Co","17609","Los Angeles","33.9296","-118.1046","1","GAS"
"712","2018","CA","Centerville PH","224","Pacific Gas & Electric Co.","14328","Butte","39.788877","-121.657383","2","HYDRO"
"713","2018","CA","Centinela Solar Energy","58430","Centinela Solar Energy LLC","58427","Imperial","32.686944","-115.647778","6","SOLAR"
"714","2018","CA","Central Antelope Dry Ranch B LLC","60281","Sustainable Power Group, LLC","58661","Los Angeles","34.705549","-118.301417","1","SOLAR"
"715","2018","CA","Central Antelope Dry Ranch C","59963","Sustainable Power Group, LLC","58661","Los Angeles","34.720499","-118.30046","1","SOLAR"
"716","2018","CA","Central Utilities Plant LAX","10048","LAX Airport","10810","Los Angeles","33.943965","-118.40425","2","GAS"
"717","2018","CA","Central Utilities Plant LAX 2","58258","LAX Airport","10810","Los Angeles","33.943889","-118.404167","2","GAS"
"718","2018","CA","Central Valley Ag Power","58978","Central Valley Ag Power LLC","58839","Stanislaus","37.719722","-120.898611","1","BIOMASS"
"719","2018","CA","Century Generating Facility","55934","Colton Power LP","4382","San Bernardino","34.0606","-117.3533","4","GAS"
"720","2018","CA","CES Placerita Power Plant","10677","CES Placerita Inc","178","Los Angeles","34.3801","-118.4999","3","GAS"
"721","2018","CA","CFW Solar X LLC - Vaughn","62378","Valta Energy","61980","Los Angeles","34.277355","-118.429836","1","SOLAR"
"722","2018","CA","Chaffey College Rancho Cucamonga Campus","62150","Chaffey Community College District","61686","San Bernardino","34.148139","-117.570404","1","SOLAR"
"723","2018","CA","Chalk Cliff Limited","50003","WCAC Operating Company","60662","Kern","35.0968","-119.4299","1","GAS"
"724","2018","CA","Chalk Mountain Powerhouse","56821","Pacific Gas & Electric Co.","14328","Shasta","40.988056","-121.768333","1","HYDRO"
"725","2018","CA","Chicago Park","412","Nevada Irrigation District","13402","Nevada","39.177903","-120.890856","1","HYDRO"
"726","2018","CA","Childrens Hospital","10175","DTE San Diego COGEN Inc.","3476","San Diego","32.7992","-117.1517","9","GAS"
"727","2018","CA","Chili Bar","225","Pacific Gas & Electric Co.","14328","El Dorado","38.771764","-120.813239","1","HYDRO"
"728","2018","CA","Chowchilla II","56185","California Power Holdings LLC","55784","Madera","37.1073","-120.2485","16","GAS"
"729","2018","CA","Chuckawalla Solar","58506","Chuckawalla Solar LLC","58486","Riverside","33.568333","-114.918056","1","SOLAR"
"730","2018","CA","Chuckawalla Valley State Prison","57011","SunE CPA CDC1 LLC","56302","Riverside","33.565329","-114.903629","1","SOLAR"
"731","2018","CA","Chula Vista Energy Center","55540","Wellhead Energy, LLC","20323","San Diego","32.591667","-117.058611","2","GAS"
"732","2018","CA","CID Solar, LLC","59183","Dominion Renewable Energy","58468","Kings","36.138056","-119.564722","1","SOLAR"
"733","2018","CA","Citizen B","59738","Sustainable Power Group, LLC","58661","Fresno","36.723806","-120.432139","1","SOLAR"
"734","2018","CA","Citizens Imperial Solar","62052","Citizens Enterprises Corporation","58871","Imperial","33.191661","-115.433783","1","SOLAR"
"735","2018","CA","City of Hayward WWTP","58525","City of Hayward","58500","Alameda","37.633526","-122.139717","2","BIOMASS"
"736","2018","CA","City of Madera WWTP","57682","SunE GIL1, LLC","57006","Madera","36.9408","-120.1572","1","SOLAR"
"737","2018","CA","City of Palo Alto","57714","City of Palo Alto","57033","Santa Clara","37.4383","-122.1094","4","GAS"
"738","2018","CA","City of Soledad Water Reclamation","59329","Foundation CA Fund VII Manager, LLC","59129","Monterey","36.421111","-121.340278","1","WIND"
"739","2018","CA","City of Tulare Water Facility","59395","City of Tulare Water Pollution Control","59173","Tulare","36.185","-119.375","4","SOLAR"
"740","2018","CA","Civic Center","10623","Los Angeles County","11216","Los Angeles","34.0564","-118.2436","5","GAS"
"741","2018","CA","Clear Lake Hydro Project","50128","Yolo County Flood Control WCD","22079","Lake","38.923556","-122.56668","1","HYDRO"
"742","2018","CA","Clearwater Power Plant","56356","City of Riverside - (CA)","16088","Riverside","33.8912","-117.6085","2","GAS"
"743","2018","CA","Cloverdale Solar Center","60813","Enerparc Inc.","60496","Sonoma","38.769581","-123.020724","1","SOLAR"
"744","2018","CA","Cloverdale Solar I","58949","GLT Cloverdale Solar LLC","58812","Sonoma","38.773056","-123.017778","1","SOLAR"
"745","2018","CA","Coachella","6060","Imperial Irrigation District","9216","Riverside","33.6758","-116.1714","4","GAS"
"746","2018","CA","Coal Canyon","226","Pacific Gas & Electric Co.","14328","Butte","39.605043","-121.600525","1","HYDRO"
"747","2018","CA","Coalinga 25D Cogen","52086","Chevron USA Inc","54713","Fresno","36.1556","-120.3972","4","GAS"
"748","2018","CA","Coalinga 6C Cogen","52083","Chevron USA Inc","54713","Fresno","36.2097","-120.3828","2","GAS"
"749","2018","CA","Coalinga Cogeneration Facility","50131","Coalinga Cogeneration Co","3852","Fresno","36.1807","-120.3885","1","GAS"
"750","2018","CA","Coalinga Cogeneration Facility","50750","Aera Energy LLC-Coalinga","23005","Fresno","36.170317","-120.364084","2","GAS"
"751","2018","CA","Coca Cola American Canyon","57807","Bloom Energy 2009 PPA","56778","Napa","38.190705","-122.275067","1","GAS"
"752","2018","CA","Cold Canyon 1","58379","Toro Energy of California SLO","58366","San Luis Obispo","35.186667","-120.599444","1","BIOMASS"
"753","2018","CA","Coleman PH","227","Pacific Gas & Electric Co.","14328","Shasta","40.404645","-122.121904","1","HYDRO"
"754","2018","CA","Colgate","454","Yuba County Water Agency","21140","Yuba","39.330833","-121.191666","2","HYDRO"
"755","2018","CA","Colgreen North Shore Solar Farm","60825","Sunpin Holdings, LLC","60495","Riverside","33.540124","-115.974771","1","SOLAR"
"756","2018","CA","Collierville Powerhouse","54555","Northern California Power Agny","40613","Calaveras","38.144636","-120.380497","2","HYDRO"
"757","2018","CA","Collins Pine Project","10661","Collins Pine Co","3953","Plumas","40.303422","-121.244431","1","BIOMASS"
"758","2018","CA","Colon PV","59798","Los Angeles Department of Water & Power","11208","Los Angeles","33.792694","-118.252407","1","SOLAR"
"759","2018","CA","Colton Solar One, LLC","59597","Colton Solar One, LLC","59345","San Bernardino","34.093333","-117.319444","1","SOLAR"
"760","2018","CA","Colton Solar Two, LLC","59598","Colton Solar Two, LLC","59346","San Bernardino","34.042222","-117.361667","1","SOLAR"
"761","2018","CA","Columbia 3","58502","X-Elio North America Inc","57354","Kern","35.024722","-118.164167","1","SOLAR"
"762","2018","CA","Columbia Solar Energy, LLC","59979","Columbia Solar Energy LLC","59736","Contra Costa","38.019671","-121.86506","1","SOLAR"
"763","2018","CA","Colusa Generating Station","56532","Pacific Gas & Electric Co.","14328","Colusa","39.3661","-122.27","2","GAS"
"764","2018","CA","Combie South","846","Nevada Irrigation District","13402","Nevada","39.0096","-121.0591","3","HYDRO"
"765","2018","CA","Commerce Refuse To Energy","10090","Los Angeles County Sanitation","11217","Los Angeles","33.9949","-118.1538","1","BIOMASS"
"766","2018","CA","Community Solar 1","58545","NRG Solar Community 1 LLC","58518","Imperial","32.982778","-115.481944","1","SOLAR"
"767","2018","CA","Con Dios Solar 11","59264","Sustainable Power Group, LLC","58661","San Bernardino","34.26","-116.335278","1","SOLAR"
"768","2018","CA","Con Dios Solar 3","59263","Sustainable Power Group, LLC","58661","San Bernardino","34.259722","-116.340278","1","SOLAR"
"769","2018","CA","Control Gorge","393","Los Angeles Department of Water & Power","11208","Inyo","37.437921","-118.556988","1","HYDRO"
"770","2018","CA","Coolwater","329","GenOn California South, LP","15908","San Bernardino","34.8606","-116.8539","8","GAS"
"771","2018","CA","Copco 1","294","PacifiCorp","14354","Siskiyou","41.978914","-122.335317","2","HYDRO"
"772","2018","CA","Copco 2","295","PacifiCorp","14354","Siskiyou","41.975716","-122.358127","2","HYDRO"
"773","2018","CA","Coram Energy LLC","54299","Brookfield Energy Marketing LP","11556","Kern","35.075","-118.3417","2","WIND"
"774","2018","CA","Coram Energy LLC (ECT)","54298","Brookfield Energy Marketing LP","11556","Kern","35.0583","-118.3417","2","WIND"
"775","2018","CA","Coram Tehachapi","54750","Coram Tehachapi LP","55928","Kern","35.0663","-118.339444","1","WIND"
"776","2018","CA","Corcoran","60450","WGL Energy Systems, Inc","57081","Kings","36.102307","-119.566516","1","SOLAR"
"777","2018","CA","Corcoran Solar","58374","Consolidated Edison Development Inc.","56769","Kings","36.138333","-119.573333","1","SOLAR"
"778","2018","CA","Corcoran Solar 2","59413","Consolidated Edison Development Inc.","56769","Kings","36.141944","-119.581667","1","SOLAR"
"779","2018","CA","Corcoran Solar 3","59900","Consolidated Edison Development Inc.","56769","Kings","36.15042","-119.58542","1","SOLAR"
"780","2018","CA","CoreSite Real Estate 1656 McCarthy, L.P.","61475","CoreSite Real Estate 1656 McCarthy, L.P.","61089","Santa Clara","37.405727","-121.916248","5","OIL"
"781","2018","CA","CoreSite Real Estate 2901 Coronado, L.P.","61476","CoreSite Real Estate 2901 Coronado, L.P.","61086","Santa Clara","37.375089","-121.971728","5","OIL"
"782","2018","CA","CoreSite Real Estate 2972 Stender, L.P.","61464","CoreSite Real Estate 2972 Stender, L.P.","61078","Santa Clara","37.376248","-121.970706","6","OIL"
"783","2018","CA","CoreSite Real Estate 3032 Coronado, L.P.","61482","CoreSite Real Estate 3032 Coronado, L.P.","61087","Santa Clara","37.376181","-121.973097","10","OIL"
"784","2018","CA","CoreSite Real Estate 55 S. Market Street","61474","CoreSite Real Estate 55 S. Market Street, LLC","61088","Santa Clara","37.334151","-121.891622","4","OIL"
"785","2018","CA","Corona","480","Metropolitan Water District of S CA","12397","Riverside","33.85895","-117.6106","1","HYDRO"
