Plant file sequence number,Data Year,Plant state abbreviation,Plant name,DOE/EIA ORIS plant or facility code,Utility name,Utility ID,Plant county name,Plant latitude,Plant longitude,Number of units,Plant primary fuel category
SEQPLT23,YEAR,PSTATABB,PNAME,ORISPL,UTLSRVNM,UTLSRVID,CNTYNAME,LAT,LON,NUMUNT,PLFUELCT
1,2023,AK,Alakanuk,57053,"Alaska Village Elec Coop, Inc",221,Kusilvak,62.6833,-164.6544,1,OIL
2,2023,AK,Allison Creek Hydro,58982,"Copper Valley Elec Assn, Inc",4329,Valdez Cordova,61.084444,-146.353333,1,HYDRO
3,2023,AK,Ambler,60243,"Alaska Village Elec Coop, Inc",221,Northwest Arctic,67.08798,-157.856719,3,OIL
4,2023,AK,Angoon,7462,"Inside Passage Elec Coop, Inc",18963,Hoonah-Angoon,57.499166,-134.58614,3,OIL
5,2023,AK,Aniak,7182,Aniak Light & Power Co Inc,4959,Bethel,61.580678,-159.535643,3,OIL
6,2023,AK,Annex Creek,62,Alaska Electric Light & Power Co.,213,Juneau,58.3176,-134.101,2,HYDRO
7,2023,AK,Auke Bay,7250,Alaska Electric Light & Power Co.,213,Juneau,58.3875,-134.6446,3,OIL
8,2023,AK,Aurora Energy LLC Chena,79,Aurora Energy LLC,986,Fairbanks North Star,64.847743,-147.735063,4,COAL
9,2023,AK,Barrow,7173,"Barrow Utils & Elec Coop, Inc",1276,North Slope,71.292,-156.7786,5,GAS
10,2023,AK,Battery Energy Storage System,57583,Golden Valley Elec Assn Inc,7353,Fairbanks North Star,64.8167,-147.725,1,OTHF
11,2023,AK,Beaver Falls,6580,Ketchikan Public Utilities,10210,Ketchikan Gateway,55.37975,-131.470269,3,HYDRO
12,2023,AK,Beluga,96,Chugach Electric Assn Inc,3522,Kenai Peninsula,61.1861,-151.0356,6,GAS
13,2023,AK,Bernice Lake,6292,Homer Electric Assn Inc,19558,Kenai Peninsula,60.6935,-151.3874,3,GAS
14,2023,AK,Bethel,6566,"Alaska Village Elec Coop, Inc",221,Bethel,60.7897,-161.787778,6,OIL
15,2023,AK,Black Bear Lake,7752,Alaska Power and Telephone Co,219,Prince of Wales-Hyder,55.476472,-133.14772,1,HYDRO
16,2023,AK,Blue Lake Hydro,93,City & Borough of Sitka - (AK),17271,Sitka,57.0516,-135.2297,3,HYDRO
17,2023,AK,Bradley Lake,7367,Homer Electric Assn Inc,19558,Kenai Peninsula,59.77862,-150.94015,2,HYDRO
18,2023,AK,Brevig Mission,60260,"Alaska Village Elec Coop, Inc",221,Nome,65.331716,-166.479506,3,OIL
19,2023,AK,Centennial,7112,Metlakatla Power & Light,12385,Prince of Wales-Hyder,55.121433,-131.560267,1,OIL
20,2023,AK,Chester Lake,7168,Metlakatla Power & Light,12385,Prince of Wales-Hyder,55.116879,-131.545879,1,HYDRO
21,2023,AK,Chevak,6311,"Alaska Village Elec Coop, Inc",221,Bethel,61.525297,-165.590152,3,OIL
22,2023,AK,Cooper Lake,6291,Chugach Electric Assn Inc,3522,Kenai Peninsula,60.392331,-149.665603,2,HYDRO
23,2023,AK,Craig (AK),421,Alaska Power and Telephone Co,219,Prince of Wales-Hyder,55.47691,-133.14869,4,OIL
24,2023,AK,Delta Power,56325,Golden Valley Elec Assn Inc,7353,Southeast Fairbanks,64.028056,-145.719444,1,OIL
25,2023,AK,Delta Wind Farm,58511,Alaska Environmental Power,58488,Southeast Fairbanks,64.013889,-145.596667,3,WIND
26,2023,AK,Dillingham,109,"Nushagak Electric Coop, Inc",13870,Dillingham,59.042914,-158.468597,9,OIL
27,2023,AK,Dutch Harbor,7502,City of Unalaska - (AK),19454,Aleutians West,53.892459,-166.538185,7,OIL
28,2023,AK,ESS Battery Microgrid,58405,Kodiak Electric Assn Inc,10433,Kodiak Island,57.799167,-152.404167,1,OTHF
29,2023,AK,Eielson AFB Central Heat & Power Plant,50392,U S Air Force-Eielson AFB,22199,Fairbanks North Star,64.67141,-147.075988,10,COAL
30,2023,AK,Eklutna Generation Station,58989,Matanuska Electric Assn Inc,11824,Anchorage,61.457778,-149.351389,10,GAS
31,2023,AK,Eklutna Hydro Project,77,Chugach Electric Assn Inc,3522,Matanuska Susitna,61.475211,-149.15009,2,HYDRO
32,2023,AK,Elim,57060,"Alaska Village Elec Coop, Inc",221,Nome,64.616558,-162.263717,3,OIL
33,2023,AK,Emmonak,6314,"Alaska Village Elec Coop, Inc",221,Kusilvak,62.777694,-164.531517,4,OIL
34,2023,AK,Eva Creek Wind,57935,Golden Valley Elec Assn Inc,7353,Denali,64.058333,-148.9,1,WIND
35,2023,AK,Eyak Service Center BESS,62714,"Cordova Electric Coop, Inc",40215,Valdez Cordova,60.54047,-145.74079,1,OTHF
36,2023,AK,Fairbanks,6286,Golden Valley Elec Assn Inc,7353,Fairbanks North Star,64.854171,-147.719351,4,OIL
37,2023,AK,False Island,56146,Alaska Power and Telephone Co,219,Prince of Wales-Hyder,55.48918,-133.1345,2,OIL
38,2023,AK,Fire Island Wind,58425,Fire Island Wind LLC,58422,Anchorage,61.13,-150.243611,1,WIND
39,2023,AK,Flywheel Energy Storage System Microgrid,60563,Kodiak Electric Assn Inc,10433,Kodiak Island,57.780114,-152.443783,1,OTHF
40,2023,AK,Fort Greely Power Plant,54834,Doyon Utilities - Fort Greely,19272,Southeast Fairbanks,63.973572,-145.716581,4,OIL
41,2023,AK,Galena Electric Utility,7437,Galena Electric Utility,6915,Yukon Koyukuk,64.74417,-156.8736,5,OIL
42,2023,AK,Gambell,57062,"Alaska Village Elec Coop, Inc",221,Nome,63.777058,-171.712439,3,OIL
43,2023,AK,George M Sullivan Generation Plant 2,6559,Chugach Electric Assn Inc,3522,Anchorage,61.229713,-149.716744,5,GAS
44,2023,AK,Glennallen,6305,"Copper Valley Elec Assn, Inc",4329,Valdez Cordova,62.110415,-145.532529,4,OIL
45,2023,AK,Goat Lake Hydro,7751,Alaska Power and Telephone Co,219,Skagway,59.5357,-135.2123,1,HYDRO
46,2023,AK,Gold Creek,63,Alaska Electric Light & Power Co.,213,Juneau,58.3107,-134.4174,8,HYDRO
47,2023,AK,Green Lake,313,City & Borough of Sitka - (AK),17271,Sitka,56.986284,-135.12275,2,HYDRO
48,2023,AK,Gustavus,65767,Alaska Power and Telephone Co,219,Skagway Hoonah Angoon,58.419497,-135.70737,4,OIL
49,2023,AK,Gwitchyaa Zhee,7174,Gwitchyaa Zhee Utility Co,7833,Yukon Koyukuk,66.566287,-145.253052,4,OIL
50,2023,AK,Haines,69,Alaska Power and Telephone Co,219,Haines,59.235931,-135.446228,6,OIL
51,2023,AK,Hank Nikkels Plant 1,75,Chugach Electric Assn Inc,3522,Anchorage,61.2221,-149.8661,3,GAS
52,2023,AK,Healy Power Plant,6288,Golden Valley Elec Assn Inc,7353,Denali,63.8542,-148.95,2,COAL
53,2023,AK,Hiilangaay Hydro,59037,"Haida Energy, Inc.",60222,Prince of Wales-Hyder,55.217254,-132.61003,1,HYDRO
54,2023,AK,Hoonah,7463,"Inside Passage Elec Coop, Inc",18963,Hoonah-Angoon,58.106432,-135.43074,3,OIL
55,2023,AK,Hooper Bay,6319,"Alaska Village Elec Coop, Inc",221,Bethel,61.530858,-166.101944,4,OIL
56,2023,AK,Houston Solar,66887,"Energy 49, LLC",65807,Matanuska Susitna,61.59,-149.79,1,SOLAR
57,2023,AK,Humpback Creek,7042,"Cordova Electric Coop, Inc",40215,Valdez Cordova,60.612822,-145.679411,3,HYDRO
58,2023,AK,Hydaburg,423,Alaska Power and Telephone Co,219,Prince of Wales-Hyder,55.204937,-132.821435,3,OIL
59,2023,AK,Industrial Plant,59793,Alaska Electric Light & Power Co.,213,Juneau,58.367635,-134.60802,1,OIL
60,2023,AK,International,6293,Chugach Electric Assn Inc,3522,Anchorage,61.168972,-149.911038,1,GAS
61,2023,AK,JBER Landfill Gas Power Plant,58380,"Doyon Utilities, LLC",58368,Anchorage,61.286,-149.61,5,BIOMASS
62,2023,AK,Jarvis Street,6801,City & Borough of Sitka - (AK),17271,Sitka,57.0497,-135.3128,5,OIL
63,2023,AK,Kake,7464,"Inside Passage Elec Coop, Inc",18963,Petersburg,56.962983,-133.922557,5,OIL
64,2023,AK,Kasidaya Creek Hydro,56542,Alaska Power and Telephone Co,219,Skagway,59.4072,-135.3408,1,HYDRO
65,2023,AK,Kasigluk,57066,"Alaska Village Elec Coop, Inc",221,Bethel,60.8731,-162.5197,3,OIL
66,2023,AK,Ketchikan,84,Ketchikan Public Utilities,10210,Ketchikan Gateway,55.344641,-131.633425,3,HYDRO
67,2023,AK,Kiana,6323,"Alaska Village Elec Coop, Inc",221,Northwest Arctic,66.973889,-160.428592,3,OIL
68,2023,AK,King Cove,7493,City of King Cove,9897,Aleutians East,55.061683,-162.3103,6,HYDRO
69,2023,AK,Kivalina,57065,"Alaska Village Elec Coop, Inc",221,Northwest Arctic,67.726644,-164.538447,5,OIL
70,2023,AK,Klawock Power Generation Station,61684,Alaska Power and Telephone Co,219,Prince of Wales-Hyder,55.553197,-133.08535,1,OIL
71,2023,AK,Kodiak Microgrid,6281,Kodiak Electric Assn Inc,10433,Kodiak Island,57.789956,-152.396982,4,OIL
72,2023,AK,Kotlik,57064,"Alaska Village Elec Coop, Inc",221,Kusilvak,63.03215,-163.553106,4,OIL
73,2023,AK,Kotzebue Hybrid,6304,Kotzebue Electric Assn Inc,10451,NORTHWEST ARCTIC,66.837778,-162.556944,35,OIL
74,2023,AK,Koyuk,57059,"Alaska Village Elec Coop, Inc",221,Nome,64.932089,-161.167103,3,OIL
75,2023,AK,Lake Dorothy Hydroelectric Project,57085,Alaska Electric Light & Power Co.,213,Juneau,58.2325,-134.0533,1,HYDRO
76,2023,AK,Lemon Creek,64,Alaska Electric Light & Power Co.,213,Juneau,58.3536,-134.4953,11,OIL
77,2023,AK,Marshall,60244,"Alaska Village Elec Coop, Inc",221,Kusilvak,61.878186,-162.085147,3,OIL
78,2023,AK,McGrath,6555,McGrath Light & Power Co,12119,Yukon Koyukuk,62.95699,-155.594997,4,OIL
79,2023,AK,Mountain Village,6329,"Alaska Village Elec Coop, Inc",221,Bethel,62.085569,-163.729072,4,OIL
80,2023,AK,NSB Anaktuvuk Pass,7487,North Slope Borough Power & Light,26616,North Slope,68.13795,-151.741017,5,OIL
81,2023,AK,NSB Atqasuk Utility,7482,North Slope Borough Power & Light,26616,North Slope,70.4826,-157.4252,5,OIL
82,2023,AK,NSB Kaktovik Utility,7483,North Slope Borough Power & Light,26616,North Slope,70.125617,-143.619033,4,OIL
83,2023,AK,NSB Nuiqsut Utility,7484,North Slope Borough Power & Light,26616,North Slope,70.220565,-150.993492,6,GAS
84,2023,AK,NSB Point Hope Utility,7485,North Slope Borough Power & Light,26616,North Slope,68.348424,-166.737211,4,OIL
85,2023,AK,NSB Point Lay Utility,7486,North Slope Borough Power & Light,26616,North Slope,69.740833,-163.005833,4,OIL
86,2023,AK,NSB Wainwright Utility,7488,North Slope Borough Power & Light,26616,North Slope,70.642877,-160.020461,5,OIL
87,2023,AK,Naknek,6301,"Naknek Electric Assn, Inc",13201,Bristol Bay,58.730417,-157.007222,12,OIL
88,2023,AK,New Stuyahok,60245,"Alaska Village Elec Coop, Inc",221,Dillingham,59.448358,-157.325528,4,OIL
89,2023,AK,Newhalen,7183,"I-N-N Electric Coop, Inc",9188,Lake and Peninsula,59.899054,-154.698735,5,HYDRO
90,2023,AK,Nikiski Combined Cycle,55966,Homer Electric Assn Inc,19558,Kenai Peninsula,60.676539,-151.377713,2,GAS
91,2023,AK,Noatak,57051,"Alaska Village Elec Coop, Inc",221,Northwest Arctic,67.570931,-162.965728,3,OIL
92,2023,AK,Noorvik,6330,"Alaska Village Elec Coop, Inc",221,Northwest Arctic,66.834519,-161.038717,3,OIL
93,2023,AK,North Pole,6285,Golden Valley Elec Assn Inc,7353,Fairbanks North Star,64.7356,-147.3481,4,OIL
94,2023,AK,Northway,7169,Alaska Power and Telephone Co,219,Southeast Fairbanks,62.9617,-141.9372,3,OIL
95,2023,AK,Nunapitchuk,6333,"Alaska Village Elec Coop, Inc",221,Bethel,60.89588,-162.459756,1,OIL
96,2023,AK,Nutrien Kenai Nitrogen Operations,54452,Nutrien US LLC,179,Kenai Peninsula,60.6732,-151.3784,5,GAS
97,2023,AK,Nymans Plant Microgrid,7723,Kodiak Electric Assn Inc,10433,Kodiak Island,57.731608,-152.507044,2,OIL
98,2023,AK,Orca,789,"Cordova Electric Coop, Inc",40215,Valdez Cordova,60.555889,-145.752983,6,OIL
99,2023,AK,Pelican,6702,Pelican Utility,29297,Hoonah-Angoon,57.957197,-136.220095,5,HYDRO
100,2023,AK,Petersburg,91,Petersburg Borough - (AK),14856,Petersburg,56.81104,-132.957091,9,OIL
101,2023,AK,Pillar Mountain Wind Project Microgrid,57187,Kodiak Electric Assn Inc,10433,Kodiak Island,57.7869,-152.4406,2,WIND
102,2023,AK,Pilot Station,57058,"Alaska Village Elec Coop, Inc",221,Kusilvak,61.936456,-162.880706,3,OIL
103,2023,AK,Port Lions Microgrid,6282,Kodiak Electric Assn Inc,10433,Kodiak Island,57.864775,-152.855441,1,OIL
104,2023,AK,Power Creek,7862,"Cordova Electric Coop, Inc",40215,Valdez Cordova,60.588686,-145.604539,2,HYDRO
105,2023,AK,Purple Lake,6302,Metlakatla Power & Light,12385,Prince of Wales-Hyder,55.091263,-131.544978,3,HYDRO
106,2023,AK,Quinhagak,57057,"Alaska Village Elec Coop, Inc",221,Bethel,59.747436,-161.910647,4,OIL
107,2023,AK,S W Bailey,85,Ketchikan Public Utilities,10210,Ketchikan Gateway,55.357397,-131.69696,4,OIL
108,2023,AK,Salmon Creek 1,65,Alaska Electric Light & Power Co.,213,Juneau,58.3269,-134.4631,1,HYDRO
109,2023,AK,Sand Point,1,"Sand Point Generating, LLC",63560,Aleutians East,55.339722,-160.497222,7,OIL
110,2023,AK,Savoonga,57052,"Alaska Village Elec Coop, Inc",221,Nome,63.695267,-170.475661,3,OIL
111,2023,AK,Scammon Bay,57056,"Alaska Village Elec Coop, Inc",221,Kusilvak,61.843036,-165.581497,3,OIL
112,2023,AK,Selawik,6341,"Alaska Village Elec Coop, Inc",221,Northwest Arctic,66.606778,-160.014808,3,OIL
113,2023,AK,Seldovia,6283,Homer Electric Assn Inc,19558,Kenai Peninsula,59.439542,-151.713439,2,OIL
114,2023,AK,Seward (AK),92,City of Seward - (AK),16955,Kenai Peninsula,60.130922,-149.43501,6,OIL
115,2023,AK,Shishmaref,6345,"Alaska Village Elec Coop, Inc",221,Nome,66.255072,-166.073589,4,OIL
116,2023,AK,Shungnak,57063,"Alaska Village Elec Coop, Inc",221,Northwest Arctic,66.888114,-157.140206,4,OIL
117,2023,AK,Silvis,6581,Ketchikan Public Utilities,10210,Ketchikan Gateway,55.381402,-131.517758,1,HYDRO
118,2023,AK,Skagway,66,Alaska Power and Telephone Co,219,Skagway,59.4545,-135.3131,8,OIL
119,2023,AK,Slana Generating Station,61685,Alaska Power and Telephone Co,219,Southeast Fairbanks,62.592756,-143.588869,3,OIL
120,2023,AK,Snake River,90,Nome Joint Utility Systems,13642,Nome,64.505331,-165.429814,7,OIL
121,2023,AK,Snettisham,78,Alaska Electric Light & Power Co.,213,Juneau,58.1415,-133.737,3,HYDRO
122,2023,AK,Soldotna,57206,Homer Electric Assn Inc,19558,Kenai Peninsula,60.499444,-150.997222,2,GAS
123,2023,AK,Solomon Gulch,390,"Copper Valley Elec Assn, Inc",4329,Valdez Cordova,61.0828,-146.3033,2,HYDRO
124,2023,AK,South Fork,56265,Alaska Power and Telephone Co,219,Prince of Wales-Hyder,55.563333,-132.891111,1,HYDRO
125,2023,AK,Southcentral Power Project,57036,Chugach Electric Assn Inc,3522,Anchorage,61.167417,-149.905304,6,GAS
126,2023,AK,St Marys IC,6338,"Alaska Village Elec Coop, Inc",221,Bethel,62.051525,-163.172567,4,OIL
127,2023,AK,St. Michael,57061,"Alaska Village Elec Coop, Inc",221,Nome,63.4775,-162.0383,1,OIL
128,2023,AK,Stebbins,57055,"Alaska Village Elec Coop, Inc",221,Nome,63.521047,-162.286322,4,OIL
129,2023,AK,Swampy Acres Microgrid,60250,Kodiak Electric Assn Inc,10433,Kodiak Island,57.77556,-152.48028,3,OIL
130,2023,AK,Swan Lake,70,Southeast Alaska Power Agency,60123,Ketchikan Gateway,55.615208,-131.356111,2,HYDRO
131,2023,AK,TNSG North Plant,58278,TDX North Slope Generating Inc.,57494,North Slope,70.235278,-148.383611,5,GAS
132,2023,AK,TNSG South Plant,58117,TDX North Slope Generating Inc.,57494,North Slope,70.2,-148.466667,5,GAS
133,2023,AK,Terror Lake Microgrid,71,Kodiak Electric Assn Inc,10433,Kodiak Island,57.6861,-152.895,3,HYDRO
134,2023,AK,Tesoro Kenai Cogeneration Plant,52184,Tesoro Alaska Company LLC,18617,Kenai Peninsula,60.677,-151.3815,2,GAS
135,2023,AK,Thorne Bay Plant,7414,Alaska Power and Telephone Co,219,Prince of Wales-Hyder,55.68586,-132.52892,2,OIL
136,2023,AK,Togiak,6348,"Alaska Village Elec Coop, Inc",221,Dillingham,59.059744,-160.380278,4,OIL
137,2023,AK,Tok,406,Alaska Power and Telephone Co,219,Southeast Fairbanks,63.33552,-142.99997,7,OIL
138,2023,AK,Toksook Bay,57067,"Alaska Village Elec Coop, Inc",221,Bethel,60.530142,-165.108575,3,OIL
139,2023,AK,Tyee Lake Hydroelectric Facility,61166,Southeast Alaska Power Agency,60123,Wrangell,56.216403,-131.504344,2,HYDRO
140,2023,AK,Unalakleet,6299,Unalakleet Valley Elec Coop,40548,Nome,63.876789,-160.790414,4,OIL
141,2023,AK,Unalaska Power Module,7503,City of Unalaska - (AK),19454,Aleutians West,53.863993,-166.512591,1,OIL
142,2023,AK,Unisea G 2,54422,Unisea Inc,19553,Aleutians West,53.8796,-166.5532,8,OIL
143,2023,AK,University of Alaska Fairbanks,50711,University of Alaska,19511,Fairbanks North Star,64.854171,-147.822075,4,COAL
144,2023,AK,Upper Kalskag,57054,"Alaska Village Elec Coop, Inc",221,Bethel,61.526858,-160.348128,3,OIL
145,2023,AK,Utility Plants Section,50308,Doyon Utilities - Ft. Wainwright,56389,Fairbanks North Star,64.825601,-147.648627,6,COAL
146,2023,AK,Valdez,6306,"Copper Valley Elec Assn, Inc",4329,Valdez Cordova,61.1303,-146.3647,5,OIL
147,2023,AK,Valdez Cogen,7841,"Copper Valley Elec Assn, Inc",4329,Valdez Cordova,61.0839,-146.2529,1,OIL
148,2023,AK,Viking,56147,Alaska Power and Telephone Co,219,Prince of Wales-Hyder,55.540708,-133.102344,1,OIL
149,2023,AK,Westward Seafoods,54305,Westward Seafoods Inc,20523,Aleutians West,53.858508,-166.55288,3,OIL
150,2023,AK,Whitman,58977,Ketchikan Public Utilities,10210,Ketchikan Gateway,55.328056,-131.530833,2,HYDRO
151,2023,AK,Wrangell,95,City of Wrangell - (AK),21015,Wrangell,56.460976,-132.379439,5,OIL
152,2023,AK,Yakutat,6637,"Alaska Village Elec Coop, Inc",221,Yakutat,59.544553,-139.724306,4,OIL
153,2023,AL,ABC Coke,56076,"ABC Coke - Drummond Co, Inc",5321,Jefferson,33.582793,-86.779866,1,GAS
154,2023,AL,AMEA Sylacauga Plant,56018,Alabama Municipal Elec Authority,40614,Talladega,33.1661,-86.2825,2,GAS
155,2023,AL,ANAD Solar Array,60680,Alabama Power Co,195,Calhoun,33.626728,-85.969481,1,SOLAR
156,2023,AL,Alabama Pine Pulp,54429,Alabama River Cellulose LLC,57356,Monroe,31.5825,-87.4889,2,BIOMASS
157,2023,AL,Alabama River Pulp,10216,Alabama River Cellulose LLC,57356,Monroe,31.5825,-87.4889,2,BIOMASS
158,2023,AL,Albertville,7924,Albertville Municipal Utilities Board,241,Marshall,34.363389,-86.223889,4,OIL
159,2023,AL,Bankhead Dam,2,Alabama Power Co,195,Tuscaloosa,33.458665,-87.356823,1,HYDRO
160,2023,AL,Barry,3,Alabama Power Co,195,Mobile,31.0069,-88.0103,9,GAS
161,2023,AL,Bartletts Ferry,702,Georgia Power Co,7140,Lee,32.663,-85.0908,6,HYDRO
162,2023,AL,Bellefonte,6150,Tennessee Valley Authority,18642,Jackson,34.7092,-85.9278,2,OIL
163,2023,AL,Black Bear Solar 1,63765,"Lightsource Renewable Energy Asset Management, LLC",62842,Montgomery,32.196971,-86.327341,1,SOLAR
164,2023,AL,Browns Ferry,46,Tennessee Valley Authority,18642,Limestone,34.7042,-87.1189,3,NUCLEAR
165,2023,AL,Calhoun Generating Facility,55409,Alabama Power Co,195,Calhoun,33.5883,-85.9731,4,GAS
166,2023,AL,Central Alabama Gen Station,55440,Alabama Power Co,195,Autauga,32.6497,-86.74,3,GAS
167,2023,AL,Charles R Lowman,56,PowerSouth Energy Cooperative,189,Washington,31.488019,-87.910747,1,GAS
168,2023,AL,Colbert,47,Tennessee Valley Authority,18642,Colbert,34.7439,-87.8486,11,GAS
169,2023,AL,Crestwood Dothan,54985,Crestwood Corp,4468,Houston,31.262356,-85.402737,7,OIL
170,2023,AL,"Cumblerland Land Holdings, LLC",61924,"Cumberland Land Holdings, LLC",61528,Limestone,34.94974,-86.868053,1,SOLAR
171,2023,AL,Decatur Energy Center,55292,Decatur Energy Center LLC,2929,Morgan,34.6292,-87.0214,3,GAS
172,2023,AL,Decatur-Morgan Co LFG Recovery Project,58061,EDL Inc,55858,Morgan,34.623611,-87.101111,2,BIOMASS
173,2023,AL,E B Harris Generating Plant,7897,Southern Power Co,17650,Autauga,32.381352,-86.574366,4,GAS
174,2023,AL,E C Gaston,26,Alabama Power Co,195,Shelby,33.244211,-86.458056,5,COAL
175,2023,AL,Fort Rucker Solar Array,60679,Alabama Power Co,195,Dale,31.331148,-85.73019,1,SOLAR
176,2023,AL,Gantt,53,PowerSouth Energy Cooperative,189,Covington,31.4033,-86.479469,2,HYDRO
177,2023,AL,Georgia-Pacific Brewton Mill,54789,Georgia-Pacific Brewton LLC,55932,Escambia,31.077,-87.1116,3,BIOMASS
178,2023,AL,Georgia-Pacific Consr Prods LP-Naheola,10699,Georgia-Pacific Consr Prods LP-Naheola,7136,Choctaw,32.2268,-88.0252,2,BIOMASS
179,2023,AL,Goat Rock,707,Georgia Power Co,7140,Lee,32.6096,-85.0795,6,HYDRO
180,2023,AL,Greene County,10,Alabama Power Co,195,Greene,32.6017,-87.7811,11,GAS
181,2023,AL,Guntersville,48,Tennessee Valley Authority,18642,Marshall,34.421272,-86.393931,4,HYDRO
182,2023,AL,H Neely Henry Dam,11,Alabama Power Co,195,Calhoun,33.7845,-86.0524,3,HYDRO
183,2023,AL,Harris Dam,6188,Alabama Power Co,195,Randolph,33.258281,-85.616047,2,HYDRO
184,2023,AL,Hillabee Energy Center,55411,CER Generation LLC,55987,Tallapoosa,33.000669,-85.903278,2,GAS
185,2023,AL,Hog Bayou Energy Center,55241,Mobile Energy LLC,12739,Mobile,30.7478,-88.0575,1,GAS
186,2023,AL,Holt Dam,12,Alabama Power Co,195,Tuscaloosa,33.2553,-87.4495,1,HYDRO
187,2023,AL,International Paper Pine Hill Mill,54752,International Paper Co.,56291,Wilcox,31.9698,-87.4806,3,BIOMASS
188,2023,AL,International Paper Prattville Mill,52140,International Paper Co,8009,Autauga,32.4187,-86.4718,4,BIOMASS
189,2023,AL,International Paper Riverdale Mill,54096,International Paper Co-Riverdl,9393,Dallas,32.426016,-86.870912,13,GAS
190,2023,AL,James H Miller Jr,6002,Alabama Power Co,195,Jefferson,33.6319,-87.0597,4,COAL
191,2023,AL,Jones Bluff,6131,USCE-Mobile District,27813,Autauga,32.324242,-86.784319,4,HYDRO
192,2023,AL,Jordan Dam,13,Alabama Power Co,195,Elmore,32.6189,-86.2548,4,HYDRO
193,2023,AL,Joseph M Farley,6001,Alabama Power Co,195,Houston,31.2231,-85.1116,2,NUCLEAR
194,2023,AL,Kimberly Clark Mobile - CHP Plant,62449,Kimberly Clark - Mobile Alabama,61964,Mobile,30.737741,-88.04977,2,GAS
195,2023,AL,LaFayette Solar Farm,60583,"AL Solar A, LLC",60347,Chambers,32.876313,-85.38821,1,SOLAR
196,2023,AL,Lay Dam,15,Alabama Power Co,195,Chilton,32.9633,-86.5187,6,HYDRO
197,2023,AL,Lewis Smith Dam,18,Alabama Power Co,195,Walker,33.9406,-87.1077,2,HYDRO
198,2023,AL,Logan Martin Dam,14,Alabama Power Co,195,Talladega,33.425878,-86.337547,3,HYDRO
199,2023,AL,Martin Dam,16,Alabama Power Co,195,Elmore,32.680394,-85.911442,4,HYDRO
200,2023,AL,McIntosh (7063),7063,PowerSouth Energy Cooperative,189,Washington,31.2546,-88.0299,5,GAS
201,2023,AL,McWilliams,533,PowerSouth Energy Cooperative,189,Covington,31.400255,-86.476449,3,GAS
202,2023,AL,Mead Coated Board,54802,Mead Coated Board Inc,12222,Russell,32.1761,-85.0272,7,BIOMASS
203,2023,AL,Millers Ferry,38,USCE-Mobile District,27813,Wilcox,32.100881,-87.399767,3,HYDRO
204,2023,AL,Mitchell Dam,17,Alabama Power Co,195,Coosa,32.806025,-86.444892,4,HYDRO
205,2023,AL,Morgan Energy Center,55293,Morgan Energy Center LLC,29122,Morgan,34.6397,-87.0639,3,GAS
206,2023,AL,Muscle Shoals,62462,"Muscle Shoals Solar, LLC",63647,Colbert,34.76973,-87.90454,1,SOLAR
207,2023,AL,OE_ALD,64469,OE_ALD,64086,Covington,31.007777,-86.59194,1,SOLAR
208,2023,AL,Packaging Corp. of America Jackson Mill,55044,Boise White Paper LLC,56310,Clarke,31.4894,-87.8989,4,BIOMASS
209,2023,AL,Plant H. Allen Franklin,7710,Southern Power Co,17650,Lee,32.6078,-85.0975,6,GAS
210,2023,AL,Point A,55,PowerSouth Energy Cooperative,189,Covington,31.361146,-86.518307,3,HYDRO
211,2023,AL,Redstone Arsenal Hybrid,61901,MN8 Energy LLC,61944,Madison,34.610987,-86.611551,2,SOLAR
212,2023,AL,"River Bend Solar, LLC",60058,"River Bend Solar, LLC",59790,Lauderdale,34.831511,-87.842204,1,SOLAR
213,2023,AL,SABIC Innovative Plastics - Burkville,7698,Alabama Power Co,195,Lowndes,32.310226,-86.52542,1,GAS
214,2023,AL,Sand Valley Power Station,59710,EDL Inc,55858,Dekalb,34.343875,-85.866103,3,BIOMASS
215,2023,AL,Sloss Industries Corp,50359,Bluestone Coke LLC,62972,Jefferson,33.568164,-86.79873,3,GAS
216,2023,AL,Tenaska Lindsay Hill Generating Station,55271,Tenaska Alabama Partners LP,31386,Autauga,32.6514,-86.7386,3,GAS
217,2023,AL,Theodore Cogeneration,7721,Alabama Power Co,195,Mobile,30.525445,-88.128477,1,GAS
218,2023,AL,Thurlow Dam,19,Alabama Power Co,195,Elmore,32.535436,-85.887614,3,HYDRO
219,2023,AL,U S Alliance Coosa Pines,54216,Bowater Newport Coosa Pines Op,2053,Talladega,33.328107,-86.356825,3,BIOMASS
220,2023,AL,W&T Onshore Treating Facility (OTF),54550,W&T Offshore Inc,57139,Mobile,30.43203,-88.18241,4,GAS
221,2023,AL,Walter Bouldin Dam,4,Alabama Power Co,195,Elmore,32.583889,-86.283056,3,HYDRO
222,2023,AL,Walton Discover Power Facility,55138,Walton Discover LLC,60492,LEE,32.54098,-85.038879,4,GAS
223,2023,AL,Washington County Cogen (Olin),7697,Alabama Power Co,195,Washington,31.26423,-88.00267,1,GAS
224,2023,AL,Weiss Dam,20,Alabama Power Co,195,Cherokee,34.172142,-85.753806,3,HYDRO
225,2023,AL,WestRock Demopolis Mill,54763,"WestRock Mill Company, LLC",59976,Marengo,32.4541,-87.9759,3,BIOMASS
226,2023,AL,Westervelt Moundville Cogen,57467,The Westervelt Co,56785,Hale,32.960714,-87.655419,2,BIOMASS
227,2023,AL,Wheeler Dam,49,Tennessee Valley Authority,18642,Lawrence,34.8069,-87.3819,11,HYDRO
228,2023,AL,Wilson Dam,6440,Tennessee Valley Authority,18642,Lauderdale,34.79782,-87.62537,21,HYDRO
229,2023,AL,Yates Dam,21,Alabama Power Co,195,Elmore,32.5743,-85.8901,2,HYDRO
230,2023,AL,,7,Alabama Power Co,195,Etowah,34.0128,-85.9708,,GAS
231,2023,AR,ACC,67507,"Entegrity Solar ACC, LLC",66109,White,33.926859,-93.860136,1,SOLAR
232,2023,AR,Arkansas Nuclear One,8055,Entergy Arkansas LLC,814,Pope,35.311,-93.2351,2,NUCLEAR
233,2023,AR,Ashdown,54104,Domtar Industries Inc,5262,Little River,33.6417,-94.1083,4,BIOMASS
234,2023,AR,Ashley-Chicot Solar,66588,"Today's Power, Inc.",61204,Ashley,33.250828,-91.922427,1,SOLAR
235,2023,AR,Beaver Dam,182,USCE-Little Rock District,19647,Carroll,36.421507,-93.847373,2,HYDRO
236,2023,AR,Berryville School District Solar,66589,"Today's Power, Inc.",61204,Carroll,36.37342,-93.58618,1,SOLAR
237,2023,AR,"Big Cypress Solar, LLC",65483,"Big Cypress Solar, LLC",64788,Crittenden,35.3446,-90.3075,1,SOLAR
238,2023,AR,Blakely Mountain,197,USCE -Vickburg District,19406,Garland,34.570984,-93.194425,2,HYDRO
239,2023,AR,Branch Solar Farm,64392,Oklahoma Gas & Electric Co,14063,Franklin,35.306183,-93.925758,1,SOLAR
240,2023,AR,Bull Shoals,198,USCE-Little Rock District,19647,Marion,36.3635,-92.5763,8,HYDRO
241,2023,AR,C&L,66590,"Today's Power, Inc.",61204,Lincoln,34.075486,-91.828323,1,SOLAR
242,2023,AR,Carl Bailey,202,Arkansas Electric Coop Corp,807,Woodruff,35.260102,-91.363426,1,GAS
243,2023,AR,Carpenter,166,Entergy Arkansas LLC,814,Garland,34.4425,-93.0262,2,HYDRO
244,2023,AR,Chicot Solar,63295,"Chicot Solar, LLC",63073,Chicot,33.479,-91.349,1,SOLAR
245,2023,AR,City Water & Light - City of Jonesboro,56505,City Water and Light Plant,9879,Craighead,35.848561,-90.725377,3,GAS
246,2023,AR,City of Green Forest (Carroll),67514,"Entegrity Solar Green Forest, LLC",66236,Carroll,36.367396,-93.542849,1,SOLAR
247,2023,AR,City of Paris Solar,64444,"Today's Power, Inc.",61204,Logan,35.301,-93.734,1,SOLAR
248,2023,AR,Clay County Electrical Cooperative,66607,"Today's Power, Inc.",61204,Clay,36.419308,-90.64251,1,SOLAR
249,2023,AR,Clearwater Paper APP CB,50638,Clearwater Paper Corporation,56225,Desha,33.7061,-91.2371,2,BIOMASS
250,2023,AR,Craighead Electric Solar One,66608,"Today's Power, Inc.",61204,Craighead,35.922262,-90.567226,1,SOLAR
251,2023,AR,Crossett SD,67515,"Entegrity Solar Crossett SD, LLC",66237,Ashley,33.131191,-91.941101,1,SOLAR
252,2023,AR,Dam 2,7246,Arkansas Electric Coop Corp,807,Desha,33.986501,-91.315788,3,HYDRO
253,2023,AR,Dardanelle,199,USCE-Little Rock District,19647,Pope,35.2503,-93.1686,4,HYDRO
254,2023,AR,Degray,187,USCE -Vickburg District,19406,Clark,34.211913,-93.110963,2,HYDRO
255,2023,AR,Dell Power Plant,55340,"Associated Electric Coop, Inc",924,Mississippi,35.8619,-90.0253,2,GAS
256,2023,AR,Elkins Generating Center,56489,Arkansas Electric Coop Corp,807,Washington,35.9714,-94.0014,3,GAS
257,2023,AR,Ellis Hydro,7040,Arkansas Electric Coop Corp,807,Crawford,35.351361,-94.294349,3,HYDRO
258,2023,AR,FECC Solar Benton,61839,"Today's Power, Inc.",61204,Saline,34.638429,-92.578347,1,SOLAR
259,2023,AR,Farmers Electric Cooperative,66610,"Today's Power, Inc.",61204,Jackson,35.629554,-91.230511,1,SOLAR
260,2023,AR,Fayetteville Public Schools (Ozarks),67518,"Nabholz Solar FPS Ozarks, LLC",66240,Washington,36.004934,-94.020522,1,SOLAR
261,2023,AR,Fayetteville Public Schools (SWEPCO),67519,"Nabholz Solar FPS, LLC",66241,Logan,35.147412,-93.870856,1,SOLAR
262,2023,AR,Flint Creek Power Plant,6138,Southwestern Electric Power Co,17698,Benton,36.2561,-94.5241,1,COAL
263,2023,AR,Forrest City- Eldridge Road,64262,Greenbacker Renewable Energy Corporation,60025,St Francis,35.03789,-90.80707,1,SOLAR
264,2023,AR,Forrest City- Prison Site,64261,Greenbacker Renewable Energy Corporation,60025,St Francis,34.97953,-90.80602,1,SOLAR
265,2023,AR,Fourche Creek Wastewater,10050,Little Rock Water Reclamation Authority,11079,Pulaski,34.6968,-92.165,1,BIOMASS
266,2023,AR,Fulton,7825,Arkansas Electric Coop Corp,807,Hempstead,33.6094,-93.7924,1,GAS
267,2023,AR,General Dynamics,65351,"Today's Power, Inc.",61204,Ouachita,33.602,-92.541,1,SOLAR
268,2023,AR,Georgia-Pacific Crossett LLC,10606,Georgia-Pacific Crossett LLC,4580,Ashley,33.1421,-91.975,2,GAS
269,2023,AR,Greers Ferry Lake,188,USCE-Little Rock District,19647,Cleburne,35.5207,-91.9953,2,HYDRO
270,2023,AR,Happy Solar 1,63766,"Lightsource Renewable Energy Asset Management, LLC",62842,White,35.167715,-91.660279,1,SOLAR
271,2023,AR,Harry D. Mattison Power Plant,56328,Southwestern Electric Power Co,17698,Washington,36.1855,-94.2841,4,GAS
272,2023,AR,Hot Spring Energy Facility,55418,Entergy Arkansas LLC,814,Hot Spring,34.29759,-92.868344,2,GAS
273,2023,AR,Hot Springs 2020,64263,Greenbacker Renewable Energy Corporation,60025,Garland,34.421,-93.19485,1,SOLAR
274,2023,AR,Independence,6641,Entergy Arkansas LLC,814,Independence,35.678442,-91.408761,2,COAL
275,2023,AR,John W. Turk Jr. Power Plant,56564,Southwestern Electric Power Co,17698,Hempstead,33.649722,-93.811944,1,COAL
276,2023,AR,Jonesboro CWL Solar Park,67487,City Water and Light Plant,9879,Craighead,35.814274,-90.578666,1,SOLAR
277,2023,AR,LRWRA,67520,"Entegrity Solar LRWRA, LLC",66242,Logan,35.147412,-93.870856,1,SOLAR
278,2023,AR,Lake Catherine,170,Entergy Arkansas LLC,814,Hot Spring,34.4341,-92.9049,1,GAS
279,2023,AR,Lee Creek Water Treatment Facility,54283,City of Fort Smith,31518,Crawford,35.484488,-94.392858,1,HYDRO
280,2023,AR,Magnet Cove Generating Station,55714,Arkansas Electric Coop Corp,807,Hot Spring,34.4297,-92.8317,2,GAS
281,2023,AR,McClellan,203,Arkansas Electric Coop Corp,807,Ouachita,33.5648,-92.7917,1,GAS
282,2023,AR,Municipal Light,193,City of Piggott - (AR),15043,Clay,36.3858,-90.1867,5,OIL
283,2023,AR,Murray,7166,City of North Little Rock - (AR),13718,Pulaski,34.7956,-92.3569,2,HYDRO
284,2023,AR,Narrows (AR),195,USCE -Vickburg District,19406,Pike,34.148427,-93.715168,3,HYDRO
285,2023,AR,Newport Solar Project,66112,"Newport Solar, LLC",65276,Jackson,35.668902,-91.187108,1,SOLAR
286,2023,AR,Noland Wastewater Treatment Plant Hybrid,62682,"Today's Power, Inc.",61204,Washington,36.082301,-94.067149,2,SOLAR
287,2023,AR,Norfork,196,USCE-Little Rock District,19647,Baxter,36.2491,-92.2401,2,HYDRO
288,2023,AR,Osceola (AR),172,City of Osceola - (AR),14216,Mississippi,35.705381,-89.9689,1,OIL
289,2023,AR,Oswald Generating Station,55221,Arkansas Electric Coop Corp,807,Pulaski,34.5923,-92.2166,7,GAS
290,2023,AR,Ozark,6142,USCE-Little Rock District,19647,Franklin,35.4693,-93.8175,5,HYDRO
291,2023,AR,Ozarks Natural Energy Community Solar,60924,Ozarks Electric Coop Corp - (AR),14289,Washington,36.164296,-94.082269,1,SOLAR
292,2023,AR,Paragould Reciprocating,8015,Paragould Light & Water Comm,14446,Greene,36.0242,-90.5094,3,GAS
293,2023,AR,Paragould Solar Farm,67188,Paragould Light & Water Comm,14446,Greene,36.025675,-90.48805,1,SOLAR
294,2023,AR,Paragould Turbine,7283,Paragould Light & Water Comm,14446,Greene,36.024272,-90.509229,5,GAS
295,2023,AR,Pine Bluff Energy Center,55075,Pine Bluff Energy LLC,28764,Jefferson,34.2181,-91.9025,1,GAS
296,2023,AR,Pine Bluff Mill,10627,Evergreen Packaging Inc,55863,Jefferson,34.221213,-91.907365,5,BIOMASS
297,2023,AR,Plum Point Energy Station,56456,NRG Energy Services - Plum Point,58905,Mississippi,35.6644,-89.9489,1,COAL
298,2023,AR,Remmel,174,Entergy Arkansas LLC,814,Hot Spring,34.4272,-92.8941,3,HYDRO
299,2023,AR,Rivercrest SD,67521,"Entegrity Solar Rivercrest SD, LLC",66243,Mississippi,35.618068,-90.104916,1,SOLAR
300,2023,AR,SR Camden,59947,"SR Camden, LLC",59710,Calhoun,33.631538,-92.703611,1,SOLAR
301,2023,AR,Scenic Hill Solar III,61869,Scenic Hill Solar III LLC,61486,Johnson,35.46715,-93.51517,1,SOLAR
302,2023,AR,"Scenic Hill Solar IV, LLC",63627,Greenbacker Renewable Energy Corporation,60025,Johnson,35.47056,-93.4464,1,SOLAR
303,2023,AR,Searcy Solar Hybrid,62617,"Searcy Solar, LLC",62109,White,35.233,-91.69,2,SOLAR
304,2023,AR,Searcy Water I,67522,"Entegrity Solar SWU, LLC",66244,White,35.265897,-91.715889,1,SOLAR
305,2023,AR,Searcy Water II,67523,"Entegrity Solar SWU 2, LLC",66245,White,35.207905,-91.722163,1,SOLAR
306,2023,AR,Southside SD,67524,"Entegrity Solar Southside SD, LLC",66246,Pulaski,34.724417,-92.196797,1,SOLAR
307,2023,AR,Stuttgart Solar,61262,"Stuttgart Solar, LLC",60871,Arkansas,34.439722,-91.44,1,SOLAR
308,2023,AR,Thomas Fitzhugh,201,Arkansas Electric Coop Corp,807,Franklin,35.462382,-93.804926,1,GAS
309,2023,AR,Two Pine Landfill Gas Recovery,56523,WM Renewable Energy LLC,54842,Pulaski,34.8332,-92.157103,6,BIOMASS
310,2023,AR,UA Central Utility Plant,60536,University Of Arkansas,60295,Washington,36.066336,-94.172254,1,GAS
311,2023,AR,UADA,67526,"Entegrity Solar UA AG, LLC",66248,Howard,33.926582,-93.858865,1,SOLAR
312,2023,AR,Union Power Station,55380,Entergy Arkansas LLC,814,Union,33.296146,-92.589364,8,GAS
313,2023,AR,Waste Management Eco Vista LFGTE,57025,WM Renewable Energy LLC,54842,Washington,36.140849,-94.259713,1,GAS
314,2023,AR,Westside Wastewater Treatment Plant Hybrid,62683,"Today's Power, Inc.",61204,Washington,36.04135,-94.140079,2,SOLAR
315,2023,AR,Whillock,7135,Arkansas Electric Coop Corp,807,Conway,35.127591,-92.790273,3,HYDRO
316,2023,AR,White Bluff,6009,Entergy Arkansas LLC,814,Jefferson,34.4228,-92.1406,2,COAL
317,2023,AR,White River Lock and Dam 1,57160,White River Hydroelectric,56515,Independence,35.757401,-91.636887,1,HYDRO
318,2023,AR,White River Lock and Dam 2,57161,White River Hydroelectric,56515,Independence,35.744036,-91.765418,1,HYDRO
319,2023,AR,White River Lock and Dam 3,57162,White River Hydroelectric,56515,Stone,35.84361,-91.850521,1,HYDRO
320,2023,AR,White River Medical Center,67527,"Entegrity Solar WRMC, LLC",66249,Jackson,35.609774,-91.257038,1,SOLAR
321,2023,AZ,AES ES GILBERT,61861,"AES ES GILBERT, LLC",61482,Maricopa,33.446804,-111.956261,1,OTHF
322,2023,AZ,APS Saguaro Power Plant,118,Arizona Public Service Co,803,Pinal,32.5517,-111.3,1,GAS
323,2023,AZ,APS West Phoenix Power Plant,117,Arizona Public Service Co,803,Maricopa,33.4417,-112.1583,3,GAS
324,2023,AZ,AZ State University - Tempe Campus Solar,62643,Arizona State University FDM,62083,Maricopa,33.424279,-111.92822,11,SOLAR
325,2023,AZ,Actus Lend Lease DMAFB,58632,Tesla Inc.,57313,Pima,32.1825,-110.863333,1,SOLAR
326,2023,AZ,Agua Caliente Solar Project,57373,Agua Caliente Solar,59396,Yuma,32.9774,-113.4945,3,SOLAR
327,2023,AZ,Agua Fria Generating Station,141,Salt River Project,16572,Maricopa,33.5561,-112.2153,6,GAS
328,2023,AZ,Amazon TUS2,64384,SkyHigh 2 Solar,63432,Pima,32.129416,-110.838888,1,SOLAR
329,2023,AZ,Amphitheater High School Solar,60684,"Luminace Solar Arizona 2, LLC",60404,Pima,32.269,-110.975,1,SOLAR
330,2023,AZ,Apache Solar 1,60964,Arizona Electric Pwr Coop Inc,796,Cochise,32.068141,-109.890379,1,SOLAR
331,2023,AZ,Apache Station,160,Arizona Electric Pwr Coop Inc,796,Cochise,32.0603,-109.8931,4,COAL
332,2023,AZ,Arizona State University CHP,58199,Energy Center Phoenix LLC,58172,Maricopa,33.417222,-111.928333,2,GAS
333,2023,AZ,Arizona Western College PV,57765,AES Distributed Energy,61012,Yuma,32.687778,-114.49611,5,SOLAR
334,2023,AZ,Arlington Valley Energy Facility,55282,Arlington Valley LLC,56812,Maricopa,33.3417,-112.8897,2,GAS
335,2023,AZ,Arlington Valley Solar Energy II,57680,"Arevon Energy, Inc.",61230,Maricopa,33.305,-112.833888,5,SOLAR
336,2023,AZ,Avalon Solar,59168,"Arevon Energy, Inc.",61230,Pima,32.001389,-110.960556,1,SOLAR
337,2023,AZ,Avalon Solar II,60062,"Avalon Solar Partners II, LLC",59789,Pima,32.000854,-110.958427,1,SOLAR
338,2023,AZ,Avra Valley Solar,57657,Avra Valley Solar,64614,Pima,32.371667,-111.282777,1,SOLAR
339,2023,AZ,Badger 1,58262,Desert Sky Solar LLC,58239,Maricopa,33.498003,-112.813458,1,SOLAR
340,2023,AZ,Black Mountain Generating Station,56482,"UNS Electric, Inc",19728,Mohave,35.0361,-114.1594,2,GAS
341,2023,AZ,Black Mountain Solar LLC,58042,Duke Energy Renewables Services,65411,Mohave,35.0227,-114.1627,1,SOLAR
342,2023,AZ,Bonnybrooke PV,60413,"Apple, Inc",57369,Pinal,33.053,-111.34,1,SOLAR
343,2023,AZ,Broadway 2 - Tucson Phase II,64580,MN8 Energy LLC,61944,Pima,32.24817,-111.2611,1,SOLAR
344,2023,AZ,Broadway 3 - Tucson Phase I,65185,MN8 Energy LLC,61944,Pima,32.24817,-111.26111,1,SOLAR
345,2023,AZ,Buckeye Union HS District 201,58037,"Luminace Solar Arizona, LLC",57408,Maricopa,33.419167,-112.576111,1,SOLAR
346,2023,AZ,Canyon Del Oro High School Solar,60685,"Luminace Solar Arizona 2, LLC",60404,Pima,32.374,-110.974,4,SOLAR
347,2023,AZ,"Central Line Solar, LLC",64566,AES Distributed Energy,61012,Pinal,32.834322,-111.56803,1,SOLAR
348,2023,AZ,Chevelon Butte Wind Farm,66001,AES Clean Energy,64904,Coconino,34.681496,-110.801732,1,WIND
349,2023,AZ,Chino Solar Valley,57560,Arizona Public Service Co,803,Yavapai,34.71843,-112.42899,1,SOLAR
350,2023,AZ,Cholla,113,Arizona Public Service Co,803,Navajo,34.9394,-110.3033,2,COAL
351,2023,AZ,Cogeneration 1,56229,University of Arizona,49913,Pima,32.229922,-110.952797,1,GAS
352,2023,AZ,Cogeneration 2,59233,University of Arizona,49913,Pima,32.240833,-110.948333,1,GAS
353,2023,AZ,Cogenra - TEP,58832,Terraform Arcadia,63249,Pima,32.101944,-110.813333,1,SOLAR
354,2023,AZ,Coolidge Generating Station,56948,Salt River Project,16572,Pinal,32.917399,-111.503327,12,GAS
355,2023,AZ,Coronado Generating Station,6177,Salt River Project,16572,Apache,34.5789,-109.2708,2,COAL
356,2023,AZ,Cotton Center Solar Hybrid,57561,Arizona Public Service Co,803,Maricopa,33.034722,-112.661667,2,SOLAR
357,2023,AZ,Crosscut,143,Salt River Project,16572,Maricopa,33.439375,-111.946052,1,HYDRO
358,2023,AZ,Davis Dam,152,U S Bureau of Reclamation,2518,Mohave,35.197044,-114.570669,5,HYDRO
359,2023,AZ,Davis Monthan AFB (AZ) West Airfield,59779,MN8 Energy LLC,61944,Pima,32.17356,-110.899734,1,SOLAR
360,2023,AZ,De Moss Petrie Generating Station,124,Tucson Electric Power Co,24211,Pima,32.252273,-110.992148,1,GAS
361,2023,AZ,Desert Basin Generating Station,55129,Salt River Project,16572,Pinal,32.9042,-111.7889,4,GAS
362,2023,AZ,Desert Star Hybrid,59444,Arizona Public Service Co,803,Maricopa,33.145,-112.66,2,SOLAR
363,2023,AZ,Douglas,114,Arizona Public Service Co,803,Cochise,31.364122,-109.5538,1,OIL
364,2023,AZ,Dry Lake Wind LLC,57098,Avangrid Renewables LLC,15399,Navajo,34.6596,-110.2842,1,WIND
365,2023,AZ,East Line Solar,62899,AES Distributed Energy,61012,Pinal,32.84703,-111.565072,1,SOLAR
366,2023,AZ,El Sol BESS,62964,Invenergy Services LLC,49893,Maricopa,33.568,-112.305917,1,OTHF
367,2023,AZ,Estrella Mountain PV,60230,Tesla Inc.,57313,Maricopa,33.409803,-112.340297,1,SOLAR
368,2023,AZ,FRB Solar Farm,57930,FRB Solar LLC,61055,Pima,32.108147,-110.824662,1,SOLAR
369,2023,AZ,Foothills Solar Plant Hybrid,57997,Arizona Public Service Co,803,Yuma,32.64856,-114.428741,3,SOLAR
370,2023,AZ,Fort Huachuca Solar PV Project,58972,Tucson Electric Power Co,24211,Cochise,31.555278,-110.35,2,SOLAR
371,2023,AZ,"Gato Montes Solar, LLC",58842,Duke Energy Renewables Services,65411,Pima,32.102778,-110.819722,1,SOLAR
372,2023,AZ,Gila Bend Hybrid,59020,Arizona Public Service Co,803,Maricopa,32.940833,-112.881389,2,SOLAR
373,2023,AZ,Gila River Power Block 2,60768,Salt River Project,16572,Maricopa,32.975,-112.694444,4,GAS
374,2023,AZ,Gila River Power Station,55306,Salt River Project,16572,Maricopa,32.975,-112.6944,8,GAS
375,2023,AZ,"Gilbert Solar Facility I, LLC",58543,"Gilbert Solar Facility I, LLC",58514,Maricopa,33.355862,-111.802355,1,SOLAR
376,2023,AZ,Glen Canyon Dam,153,U S Bureau of Reclamation,2518,Coconino,36.936614,-111.483872,8,HYDRO
377,2023,AZ,Gray Hawk Solar,61272,"Gray Hawk Solar, LLC",60886,Mohave,35.3635,-113.8978,1,SOLAR
378,2023,AZ,Griffith Energy Project,55124,Griffith Energy LLC,56090,Mohave,35.054029,-114.133272,2,GAS
379,2023,AZ,Headgate Rock,7179,Colorado River Indian Irr Proj,3990,La Paz,34.168264,-114.277356,3,HYDRO
380,2023,AZ,Hoover Dam (AZ),8902,U S Bureau of Reclamation,2518,Mohave,36.01551,-114.738006,10,HYDRO
381,2023,AZ,Horse Mesa,145,Salt River Project,16572,Maricopa,33.5907,-111.344,4,HYDRO
382,2023,AZ,Hyder II Hybrid,58383,Arizona Public Service Co,803,Yuma,33.027,-113.3489,2,SOLAR
383,2023,AZ,Hyder Solar Hybrid,57563,Arizona Public Service Co,803,Yuma,33.02566,-113.34397,3,SOLAR
384,2023,AZ,Intel - Ocotillo Campus Solar,60822,Tesla Inc.,57313,Maricopa,33.243261,-111.892354,2,SOLAR
385,2023,AZ,Iron Horse Battery Storage Hybrid,60996,"RWE Renewables Americas, LLC",56215,Pima,32.098492,-110.819119,2,SOLAR
386,2023,AZ,Irvington Generating Station,126,Tucson Electric Power Co,24211,Pima,32.16,-110.9047,2,GAS
387,2023,AZ,Jacobson 5 MW Solar,60603,"UNS Electric, Inc",19728,Mohave,35.304528,-114.01183,1,SOLAR
388,2023,AZ,Jewish Community Center PV,58292,AES Distributed Energy,61012,Maricopa,33.603056,-111.924722,1,SOLAR
389,2023,AZ,Kayenta Solar Project,61268,"NGI-Kayenta Solar Lessor I, LLC",60879,Navajo,36.771944,-110.263889,2,SOLAR
390,2023,AZ,Kingman 1,57775,Brookfield Renewable Trading and Marketing LP,63235,Mohave,35.145833,-114.0675,2,WIND
391,2023,AZ,Kyrene Generating Station,147,Salt River Project,16572,Maricopa,33.3556,-111.9353,1,GAS
392,2023,AZ,La Senita,57556,"UNS Electric, Inc",19728,Mohave,35.241675,-114.004591,1,SOLAR
393,2023,AZ,Lake Pleasant WTP,58539,MN8 Energy LLC,61944,Maricopa,33.820556,-112.24,1,SOLAR
394,2023,AZ,Luke Solar,57324,Arizona Public Service Co,803,Maricopa,33.526111,-112.37944,1,SOLAR
395,2023,AZ,Macys Goodyear,57673,"Macys Corporate Services, Inc",56998,Maricopa,33.409063,-112.414596,1,SOLAR
396,2023,AZ,McFarland A Solar and Storage,66636,AES Clean Energy,64904,Yuma,32.951288,-113.490521,2,SOLAR
397,2023,AZ,Mesa Carport PV,64404,"Apple, Inc",57369,Maricopa,33.347,-111.602,2,SOLAR
398,2023,AZ,Mesquite Generating Station,55481,Mesquite Power LLC,12363,Maricopa,33.345047,-112.864227,4,GAS
399,2023,AZ,Mesquite Solar 1,57707,Consolidated Edison Development Inc.,56769,Maricopa,33.341833,-112.904028,12,SOLAR
400,2023,AZ,"Mesquite Solar 2, LLC",60307,Consolidated Edison Development Inc.,56769,Maricopa,33.332777,-112.911388,1,SOLAR
401,2023,AZ,"Mesquite Solar 3, LLC",60308,Consolidated Edison Development Inc.,56769,Maricopa,33.347583,-112.936805,1,SOLAR
402,2023,AZ,"Mesquite Solar 5, LLC",65963,Consolidated Edison Development Inc.,56769,Maricopa,33.3252,-112.918,2,SOLAR
403,2023,AZ,Mohave County Wind Farm,63114,Mohave County Wind Farm,62916,Mohave,35.791142,-114.504504,1,WIND
404,2023,AZ,Mohave Electric Cooperative at Joy Lane,63554,"Mohave Electric Cooperative, Inc.",21538,Mohave,34.9843,-114.5565,1,SOLAR
405,2023,AZ,Mohave Electric at Fort Mohave,59819,"Mohave Electric Cooperative, Inc.",21538,Mohave,34.9843,-114.5565,1,SOLAR
406,2023,AZ,Mohave Energy - Hybrid,67178,Mohave Energy,66056,Mohave,34.99333,-114.548432,2,SOLAR
407,2023,AZ,Mormon Flat,148,Salt River Project,16572,Maricopa,33.5536,-111.4431,2,HYDRO
408,2023,AZ,New Harquahala Generating Company,55372,"New Harquahala Generating Co, LLC",32790,Maricopa,33.47596,-113.113434,3,GAS
409,2023,AZ,North Loop,6088,Tucson Electric Power Co,24211,Pima,32.401,-111.1262,4,GAS
410,2023,AZ,Northwest Regional,57403,WM Renewable Energy LLC,54842,Maricopa,33.681944,-112.476666,2,BIOMASS
411,2023,AZ,Novo BioPower Plant,56616,Novo Biopower LLC,55925,Navajo,34.503158,-110.334953,1,BIOMASS
412,2023,AZ,OE_AZ1,63349,Onward Energy,60453,La Paz,33.776667,-113.656111,1,SOLAR
413,2023,AZ,Ocotillo Power Plant,116,Arizona Public Service Co,803,Maricopa,33.4225,-111.9122,5,GAS
414,2023,AZ,Palo Verde,6008,Arizona Public Service Co,803,Maricopa,33.3881,-112.8617,3,NUCLEAR
415,2023,AZ,Paloma Solar Hybrid,57562,Arizona Public Service Co,803,Maricopa,33.021111,-112.661389,2,SOLAR
416,2023,AZ,Paradise Valley H.S. PV,58293,AES Distributed Energy,61012,Maricopa,33.6416,-111.9997,1,SOLAR
417,2023,AZ,Perrin Ranch Wind LLC,58155,Perrin Ranch Wind LLC,58132,Coconino,35.415556,-112.271111,1,WIND
418,2023,AZ,Phoenix Airport East Economy Lot,58708,Solar Star Arizona II LLC,58649,Maricopa,33.4345,-111.9842,1,SOLAR
419,2023,AZ,Phoenix Airport Rental Car Center,58709,Solar Star Arizona II LLC,58649,Maricopa,33.43042,-112.04484,1,SOLAR
420,2023,AZ,"Picture Rocks Solar, LLC",58486,MN8 Energy LLC,61944,Pima,32.369722,-111.242778,1,SOLAR
421,2023,AZ,Pima Community College,62075,Tesla Inc.,57313,Pima,32.166494,-110.816669,1,SOLAR
422,2023,AZ,Pima Community College - East Campus,61104,Tesla Inc.,57313,Pima,32.146142,-110.990639,1,SOLAR
423,2023,AZ,Pima Community College NW,63531,Onyx Asset Services Group,60584,Pima,32.343491,-111.02786,1,SOLAR
424,2023,AZ,Pima Energy Storage System,61197,Pima Energy Storage System,60834,Pima,32.251647,-110.991333,1,OTHF
425,2023,AZ,Pinal Central Energy Center Hybrid,61678,"Pinal Central Energy Center, LLC",61295,Pinal,32.875697,-111.551111,2,SOLAR
426,2023,AZ,"Poseidon Solar, LLC",57318,"Axium Arizona Renewables, LLC",63287,GILA,33.160601,-111.484011,1,SOLAR
427,2023,AZ,"Poseidon Wind, LLC",57379,"Axium Arizona Renewables, LLC",63287,Navajo,34.6062,-110.1734,1,WIND
428,2023,AZ,Prairie Fire,58171,Tucson Electric Power Co,24211,Pima,32.116389,-110.82,1,SOLAR
429,2023,AZ,Prescott Airport,56228,Arizona Public Service Co,803,Yavapai,34.6584,-112.4008,1,SOLAR
430,2023,AZ,Prescott Solar Plant,58147,"SunE AZ1, LLC",58108,Yavapai,34.649444,-112.4275,1,SOLAR
431,2023,AZ,Punkin Center Battery Storage,61913,Arizona Public Service Co,803,Gila,33.87581,-111.31356,1,OTHF
432,2023,AZ,Queen Creek Solar Farm,57883,Siete Solar LLC,57219,Maricopa,33.2675,-111.612222,1,SOLAR
433,2023,AZ,RE Ajo 1 LLC,57795,Duke Energy Renewables Services,65411,Pima,32.367013,-112.831401,1,SOLAR
434,2023,AZ,RE Bagdad Solar I LLC,57790,Duke Energy Renewables Services,65411,Yavapai,34.585833,-113.177222,1,SOLAR
435,2023,AZ,RE Gillespie 1 LLC,58501,MN8 Energy LLC,61944,Maricopa,33.026389,-112.665833,1,SOLAR
436,2023,AZ,Raptor Ridge,65972,Tucson Electric Power Co,24211,Pima,32.146944,-110.878056,1,SOLAR
437,2023,AZ,Red Horse 2,58833,Red Horse 2,59146,Cochise,32.286111,-110.088056,2,SOLAR
438,2023,AZ,Red Horse III,60285,Red Horse III,60068,Cochise,32.13597,-110.05129,1,SOLAR
439,2023,AZ,Red Rock,60467,Arizona Public Service Co,803,Maricopa,32.551026,-111.289232,1,SOLAR
440,2023,AZ,Redhawk Generating Facility,55455,Arizona Public Service Co,803,Maricopa,33.334562,-112.840641,4,GAS
441,2023,AZ,Rio Rico Solar,59044,"UNS Electric, Inc",19728,Santa Cruz,31.5,-111.008056,1,SOLAR
442,2023,AZ,Roger Road WWTP,57524,SunE M5C Holdings LLC,56857,Pima,32.2894,-111.0331,1,SOLAR
443,2023,AZ,Roosevelt,149,Salt River Project,16572,Maricopa,33.671104,-111.161786,1,HYDRO
444,2023,AZ,SR McNeal,66925,"SR McNeal, LLC",65303,Cochise,31.5551,-109.7013,2,OTHF
445,2023,AZ,Saddle Mountain Solar I,58213,"SunE AZ2, LLC",58182,Maricopa,33.378333,-113.180833,1,SOLAR
446,2023,AZ,Saint Energy Storage II LLC,66716,Saint Energy Storage II LLC,65727,Pinal,32.86951,-111.514226,1,OTHF
447,2023,AZ,Saint Solar,63476,Saint Solar LLC,63210,Pinal,32.866276,-111.502402,1,SOLAR
448,2023,AZ,Sandstone Solar,59634,AES Distributed Energy,61012,Pinal,33.035556,-111.430278,1,SOLAR
449,2023,AZ,Santan,8068,Salt River Project,16572,Maricopa,33.3325,-111.7503,3,GAS
450,2023,AZ,Solana Generating Station,56812,Arizona Solar One LLC,56023,Maricopa,32.922294,-112.95594,2,SOLAR
451,2023,AZ,Sonoran Solar Energy,66627,"Sonoran Solar Energy, LLC",65652,Maricopa,33.248767,-112.542402,2,SOLAR
452,2023,AZ,South Consolidated,100,Salt River Project,16572,Maricopa,33.466477,-111.781064,1,HYDRO
453,2023,AZ,"South Point Energy Center, LLC",55177,South Point Energy Center LLC,50157,Mohave,34.8678,-114.5317,2,GAS
454,2023,AZ,Springerville Generating Station,8223,Tucson Electric Power Co,24211,Apache,34.3186,-109.1639,7,COAL
455,2023,AZ,Stewart Mountain,150,Salt River Project,16572,Maricopa,33.5661,-111.536,1,HYDRO
456,2023,AZ,Storey Solar and Storage,65956,"Storey Energy Center, LLC",64801,Pinal,32.8882,-111.4978,2,SOLAR
457,2023,AZ,Sulphur Springs,60381,MN8 Energy LLC,61944,Cochise,32.0628,-109.919283,1,SOLAR
458,2023,AZ,Sun Streams 2,63440,"Sun Streams 2, LLC",64851,Maricopa,33.320406,-112.816771,1,SOLAR
459,2023,AZ,"Sun Streams, LLC",60827,EDP Renewables North America LLC,61785,Maricopa,33.34884,-112.8348,1,SOLAR
460,2023,AZ,Sundance Power Plant,55522,Arizona Public Service Co,803,Pinal,32.9285,-111.5899,10,GAS
461,2023,AZ,T0588 Phoenix - AZ,61199,SoCore Energy LLC,60520,Maricopa,33.447225,-112.217664,1,SOLAR
462,2023,AZ,TJX Phoenix,67824,SoCore Energy LLC,60520,Maricopa,33.418481,-112.178067,1,SOLAR
463,2023,AZ,TJX Tucson,67821,SoCore Energy LLC,60520,Pima,32.125,-110.913919,1,SOLAR
464,2023,AZ,Tech Park Solar,59455,"RWE Renewables Americas, LLC",56215,Pima,32.097884,-110.815696,1,SOLAR
465,2023,AZ,UASTP I,57392,Tucson Electric Power Co,24211,Pima,32.096973,-110.8106,1,SOLAR
466,2023,AZ,Union HS at Casa Grande,58516,"Luminace Solar Holding, LLC",58491,Pinal,32.936944,-111.738611,1,SOLAR
467,2023,AZ,University of Arizona - Biosphere 2,54594,University of Arizona - Biosphere 2,55994,Pinal,32.578011,-110.852608,2,GAS
468,2023,AZ,Valencia,6515,"UNS Electric, Inc",19728,Santa Cruz,31.363472,-110.931343,4,GAS
469,2023,AZ,Valencia Solar,59454,"RWE Renewables Americas, LLC",56215,Pima,32.145833,-110.866944,1,SOLAR
470,2023,AZ,Vista Grande HS at Casa Grande,58517,"Luminace Solar Holding, LLC",58491,Pinal,32.891389,-111.713056,1,SOLAR
471,2023,AZ,Waddell,7164,Central Arizona Water Conservation Dist,2850,Maricopa,33.8447,-112.2714,4,HYDRO
472,2023,AZ,Walmart Casa Grande,57939,Tesla Inc.,57313,Pinal,32.866837,-111.771751,2,SOLAR
473,2023,AZ,"West Line Solar, LLC",66125,"West Line Solar, LLC",65288,Pinal,32.7559,-111.5548,1,SOLAR
474,2023,AZ,Western Renewable Energy,56358,Western Renewable Energy LLC,54690,Apache,34.093006,-109.289979,1,BIOMASS
475,2023,AZ,Wilmot Energy Center LLC,64426,Wilmot Energy Center LLC,64002,Pima,32.043502,-110.892676,2,SOLAR
476,2023,AZ,Yucca Power Plant,120,Arizona Public Service Co,803,Yuma,32.7214,-114.7106,3,GAS
477,2023,AZ,Yuma Cogeneration Associates,54694,Falcon Power Operating Company,49919,Yuma,32.728822,-114.654053,1,GAS
478,2023,CA,"20333 Normandie PV, LLC",65331,TRITEC Americas,66225,Los Angeles,33.84614,-118.30019,1,SOLAR
479,2023,CA,"20701 Plummer PV, LLC",65794,Valta Energy,61980,Los Angeles,34.243444,-118.58517,1,SOLAR
480,2023,CA,2081 Terzian Solar Project,58918,Solarenewal LLC,61315,Fresno,36.67,-119.415833,1,SOLAR
481,2023,CA,2097 Helton Solar Project,58920,Solarenewal LLC,61315,Merced,37.352222,-120.506944,1,SOLAR
482,2023,CA,2127 Harris Solar Project,58919,Solarenewal LLC,61315,Butte,39.291667,-121.669722,1,SOLAR
483,2023,CA,2555 E Olympic Bl,57871,Los Angeles Department of Water & Power,11208,Los Angeles,34.026944,-118.224167,1,SOLAR
484,2023,CA,85 A,52162,Wind Wall 1 LLC,64311,Kern,35.095797,-118.324772,1,WIND
485,2023,CA,85 B,52163,Wind Wall 1 LLC,64311,Kern,35.102577,-118.332533,1,WIND
486,2023,CA,"8500 Balboa PV, LLC",65330,"8500 Balboa PV, LLC",64640,Los Angeles,34.22379,-118.49974,2,SOLAR
487,2023,CA,9150 Hermosa Solar GM,66622,Valta Energy,61980,San Bernardino,34.0878,-117.5872,1,SOLAR
488,2023,CA,A G Wishon,293,Pacific Gas & Electric Co.,14328,Madera,37.15105,-119.504724,4,HYDRO
489,2023,CA,ABEC #2 dba West-Star Dairy,61501,ABEC #2 LLC,61105,Kern,35.472113,-119.432866,1,BIOMASS
490,2023,CA,ABEC #3 dba Lakeview Dairy,61502,ABEC #3 LLC,61106,Kern,35.21426,-119.202974,1,BIOMASS
491,2023,CA,ABEC #4 dba CE&S Dairy,61503,ABEC #4 LLC,61107,Kern,35.17306,-119.116384,1,BIOMASS
492,2023,CA,ABEC Bidart-Old River LLC,58699,ABEC Bidart-Old River LLC,58628,Kern,35.169722,-119.105556,2,BIOMASS
493,2023,CA,AES Alamitos,315,AES Alamitos LLC,22148,Los Angeles,33.7688,-118.1009,5,GAS
494,2023,CA,"AES ES Alamitos, LLC",61204,"AES ES Alamitos, LLC",62160,Los Angeles,33.770202,-118.099665,1,OTHF
495,2023,CA,AES Huntington Beach,335,AES Huntington Beach LLC,23693,Orange,33.6439,-117.9792,3,GAS
496,2023,CA,AES Redondo Beach,356,AES Redondo Beach LLC,22484,Los Angeles,33.8504,-118.395,3,GAS
497,2023,CA,AGT000 Stevens Creek Fuel Cell,63699,"2016 ESA Project Company, LLC",62150,Santa Clara,37.32489,-121.99894,2,GAS
498,2023,CA,"AP North Lake I, LP",59610,"AP North Lake I, LP",59353,Riverside,33.74,-117.010556,1,SOLAR
499,2023,CA,APP Prune A-D,62577,Bloom Energy,57128,Santa Clara,37.331666,-122.006686,4,GAS
500,2023,CA,ASTI,58889,Perpetual Energy Systems,58759,Sonoma,38.761389,-122.975278,1,SOLAR
501,2023,CA,AT&T - Gardena,65205,Bloom Energy,57128,Los Angeles,33.874969,-118.289798,1,GAS
502,2023,CA,AT&T - Hawthorne,65206,Bloom Energy,57128,Los Angeles,33.92429,-118.320597,1,GAS
503,2023,CA,AT&T - Hayward,65208,Bloom Energy,57128,Alameda,37.659879,-122.09685,1,GAS
504,2023,CA,AT&T - Redwood City,65204,Bloom Energy,57128,San Mateo,37.480769,-122.200408,1,GAS
505,2023,CA,AT&T - San Diego Trade Street,65360,Bloom Energy,57128,San Diego,32.88758,-117.16682,1,GAS
506,2023,CA,AT&T Anaheim,61154,Bloom Energy,57128,Orange,33.836439,-117.916893,1,GAS
507,2023,CA,AT&T Holger,61153,Bloom Energy,57128,Santa Clara,37.417638,-121.94453,1,GAS
508,2023,CA,AT&T San Diego,65192,Bloom Energy,57128,San Diego,32.904775,-117.1986,1,GAS
509,2023,CA,ATT Kelvin,62573,Bloom Energy,57128,Orange,33.684675,-117.836821,1,GAS
510,2023,CA,ATT North Watney,63605,Bloom Energy,57128,Solano,38.236257,-122.077759,1,GAS
511,2023,CA,ATT Van Nyus,62574,Bloom Energy,57128,Los Angeles,34.196324,-118.448225,1,GAS
512,2023,CA,ATT Ventura Blvd,63606,Bloom Energy,57128,Los Angeles,34.152191,-118.456078,1,GAS
513,2023,CA,AV Solar Ranch One,57378,AV Solar Ranch 1 LLC,56722,Los Angeles,34.780278,-118.42444,1,SOLAR
514,2023,CA,AVS Lancaster 1,60085,Tesla Inc.,57313,Los Angeles,34.748894,-117.973571,1,SOLAR
515,2023,CA,Abel Road Bioenergy,65517,ACC Renewable Resources,64841,Colusa,39.145608,-122.118591,1,BIOMASS
516,2023,CA,Acorn I Energy Storage LLC,62874,Acorn I Energy Storage LLC,62747,Ventura,34.196505,-118.931898,1,OTHF
517,2023,CA,"Adapture CA2, LLC",59978,"Adapture Renewables, Inc.",60496,Glenn,39.69898,-122.175583,1,SOLAR
518,2023,CA,"Adelanto Solar II, LLC",59440,"Adelanto Solar II, LLC",59212,San Bernardino,34.557222,-117.3775,1,SOLAR
519,2023,CA,Adelanto Solar Project,57305,Los Angeles Department of Water & Power,11208,San Bernardino,34.550833,-117.435277,1,SOLAR
520,2023,CA,"Adelanto Solar, LLC",59441,"Adelanto Solar, LLC",59211,San Bernardino,34.557222,-117.3775,1,SOLAR
521,2023,CA,Adera Solar,60027,AES Distributed Energy,61012,Madera,37.120586,-120.32488,1,SOLAR
522,2023,CA,Adobe San Jose,57811,Bloom Energy,57128,Santa Clara,37.330556,-121.893056,2,GAS
523,2023,CA,Adobe Solar,57651,Southern Power Co,17650,KERN,35.102778,-118.954444,1,SOLAR
524,2023,CA,Aera San Ardo Cogen Facility,55184,Aera Energy LLC-San Ardo,24536,Monterey,35.953293,-120.859952,2,GAS
525,2023,CA,Aerojet I,57697,"Altus Power America Management, LLC",60281,Sacramento,38.613508,-121.162879,1,SOLAR
526,2023,CA,Aerojet II,57698,"Altus Power America Management, LLC",60281,Sacramento,38.6086,-121.1703,1,SOLAR
527,2023,CA,Aerolease,61718,"PCS Energy, LLC",61348,Los Angeles,34.189857,-118.451355,1,SOLAR
528,2023,CA,Agnews Power Plant,50748,OLS Energy-Agnews Inc.,2871,Santa Clara,37.4058,-121.9272,2,GAS
529,2023,CA,Agriculture Capital - Legacy Packing,66797,"Distributed Solar Development, LLC",64872,Tulare,36.49466,-119.46698,1,SOLAR
530,2023,CA,Agua Mansa Power,55951,E I Colton LLC,5532,San Bernardino,34.0414,-117.3603,1,GAS
531,2023,CA,Aidlin Geothermal Power Plant,52158,Geysers Power Co LLC,7160,Sonoma,38.8339,-122.881,2,GEOTHERMAL
532,2023,CA,Alameda,7450,Northern California Power Agny,40613,Alameda,37.7886,-122.2889,2,GAS
533,2023,CA,Alamo,905,California Dept. of Water Resources,3255,Los Angeles,34.8158,-118.6867,1,HYDRO
534,2023,CA,Alamo Solar,59469,Onward Energy,60453,San Bernardino,34.682222,-117.3475,1,SOLAR
535,2023,CA,Algonquin Power Sanger,57564,Algonquin Power Sanger LLC,56905,Fresno,36.6842,-119.5522,1,GAS
536,2023,CA,"Algonquin SKIC 10 Solar, LLC",60242,Algonquin Power Co,59050,Kern,35.126111,-119.243361,1,SOLAR
537,2023,CA,Algonquin SKIC20 Solar LLC,59412,Algonquin Power Co,59050,Kern,35.126111,-119.243333,1,SOLAR
538,2023,CA,Allergan,63609,"Hybrid-Electric Building Technologies West Los Angeles 1, LLC",63785,Orange,33.67239,-117.85381,1,OTHF
539,2023,CA,Almond,62546,Westlands Almond LLC,62048,Kings,36.21222,-119.91,1,SOLAR
540,2023,CA,Almond Power Plant,7315,Turlock Irrigation District,19281,Stanislaus,37.5744,-120.985,4,GAS
541,2023,CA,Alpaugh 50,58003,Consolidated Edison Development Inc.,56769,Tulare,35.898333,-119.435278,1,SOLAR
542,2023,CA,Alpaugh North,58002,Consolidated Edison Development Inc.,56769,Tulare,35.9025,-119.442778,1,SOLAR
543,2023,CA,Alpine Solar,57295,Alpine Solar,64617,Los Angeles,34.7892,-118.5047,1,SOLAR
544,2023,CA,Alta Powerhouse,214,Pacific Gas & Electric Co.,14328,Placer,39.215979,-120.80355,1,HYDRO
545,2023,CA,Alta Sea,66395,"Signal Street Operating, LLC",65474,Los Angeles,33.719111,-118.272621,1,SOLAR
546,2023,CA,Alta Wind Energy Center I,57282,Alta Wind Energy Center I,64618,Kern,35.033725,-118.353422,1,WIND
547,2023,CA,Alta Wind Energy Center II,57291,Alta Wind Energy Center II,64620,Kern,35.023889,-118.295278,1,WIND
548,2023,CA,Alta Wind Energy Center III,57292,Alta Wind Energy Center III,64621,Kern,35.023889,-118.295278,1,WIND
549,2023,CA,Alta Wind Energy Center IV,57293,Alta Wind Energy Center IV,64622,Kern,35.008611,-118.242222,1,WIND
550,2023,CA,Alta Wind Energy Center V,57294,Alta Wind Energy Center V,64623,Kern,35.008611,-118.242222,1,WIND
551,2023,CA,Alta Wind VIII,57835,Nextera Energy Resources,64260,Kern,35.026683,-118.234811,1,WIND
552,2023,CA,Alta Wind X,58394,"Alta Wind X, LLC",58379,Kern,35.06,-118.2,1,WIND
553,2023,CA,Alta Wind XI,58395,"Alta Wind XI, LLC",58380,Kern,35.065,-118.39,1,WIND
554,2023,CA,AltaGas Ripon Energy Inc.,50299,AltaGas Ripon Energy Inc.,60134,San Joaquin,37.732533,-121.116006,1,GAS
555,2023,CA,Altamont Gas Recovery,50571,WM Renewable Energy LLC,54842,Alameda,37.749308,-121.649866,2,BIOMASS
556,2023,CA,Alticor Inc - Solar Project,63303,MN8 Energy LLC,61944,Orange,33.878585,-117.99608,1,SOLAR
557,2023,CA,Amazon - Patterson PV,61377,AES Distributed Energy,61012,Stanislaus,37.468888,-121.166326,1,SOLAR
558,2023,CA,Amazon - Stockton - Roof (SCK1) - (CA),64429,"Forefront Power, LLC",62856,San Joaquin,37.911715,-121.19865,1,SOLAR
559,2023,CA,Amazon PSP1,64751,Greenbacker Renewable Energy Corporation,60025,Riverside,33.92624,-116.99442,1,SOLAR
560,2023,CA,Amazon San Bernardino,59800,Bloom Energy,57128,San Bernardino,34.088408,-117.245839,1,GAS
561,2023,CA,Amedee Geothermal Venture I,50964,Amedee Gethrm Venture I LP,472,Lassen,40.300833,-120.105,2,GEOTHERMAL
562,2023,CA,Ameresco Butte County,57771,Ameresco Butte County LLC,57079,Butte,39.674,-121.73,1,BIOMASS
563,2023,CA,Ameresco Chiquita Canyon,56898,AMERESCO Chiquita Canyon LLC,56104,Los Angeles,34.431664,-118.642855,2,BIOMASS
564,2023,CA,Ameresco Forward,58437,"Ameresco Forward, LLC",58433,San Joaquin,37.883406,-121.185104,2,BIOMASS
565,2023,CA,Ameresco Johnson Canyon,58397,Ameresco Johnson Canyon LLC,58382,Monterey,36.534167,-121.408611,1,BIOMASS
566,2023,CA,Ameresco Keller Canyon,56897,AMERESCO Keller Canyon LLC,56103,Contra Costa,38.003928,-121.934491,2,BIOMASS
567,2023,CA,Ameresco Ox Mountain,56895,AMERESCO Ox Mountain Energy LLC,56101,San Mateo,37.5,-122.4,6,BIOMASS
568,2023,CA,Ameresco San Joaquin,58436,"Ameresco San Joaquin, LLC",58432,San Joaquin,38.029722,-120.929722,2,BIOMASS
569,2023,CA,Ameresco Santa Cruz Energy,56428,AMERESCO Santa Cruz Energy LLC,54814,Santa Cruz,36.9178,-121.8156,3,BIOMASS
570,2023,CA,Ameresco Vasco Road,58435,"Ameresco Vasco Road, LLC",58431,Alameda,37.754444,-121.728889,2,BIOMASS
571,2023,CA,American Canyon Solar,62687,"RP Napa Solar 1, LLC",62162,Napa,38.160858,-122.214014,3,SOLAR
572,2023,CA,"American Kings Solar, LLC",60777,MN8 Energy LLC,61944,Kings,36.24,-119.898,1,SOLAR
573,2023,CA,Ampersand Chowchilla Biomass LLC,56706,Ampersand Chowchilla Biomass LLC,55953,Madera,37.106668,-120.248504,1,BIOMASS
574,2023,CA,Anaheim Solar Energy Plant,59416,Anaheim Public Utilities,59187,Orange,33.8025,-117.919722,1,SOLAR
575,2023,CA,Angels,215,Utica Water & Power Authority,19586,Calaveras,38.071944,-120.539444,1,HYDRO
576,2023,CA,Anheuser Busch - Fairfield,66456,Bloom Energy,57128,Solano,38.235224,-122.092666,1,GAS
577,2023,CA,Anheuser-Busch #2,59331,"Foundation HA Energy Generation, LLC",56930,Solano,38.233611,-122.0925,1,WIND
578,2023,CA,Antelope Big Sky Ranch,60279,AES Distributed Energy,61012,Los Angeles,34.694839,-118.28769,1,SOLAR
579,2023,CA,Antelope DSR 1,60186,AES Distributed Energy,61012,Los Angeles,34.655556,-118.280722,1,SOLAR
580,2023,CA,Antelope DSR 2,60187,AES Distributed Energy,61012,Los Angeles,34.686944,-118.311722,1,SOLAR
581,2023,CA,Antelope DSR 3,61265,AES Distributed Energy,61012,Los Angeles,34.736859,-118.304071,1,SOLAR
582,2023,CA,Antelope Expansion 1B,62320,AES Distributed Energy,61012,Los Angeles,34.71611,-118.259161,1,SOLAR
583,2023,CA,Antelope Expansion 2,61264,AES Distributed Energy,61012,Los Angeles,34.744977,-118.309153,1,SOLAR
584,2023,CA,Antelope Expansion 3A,62673,AES Distributed Energy,61012,Los Angeles,34.728902,-118.322051,1,SOLAR
585,2023,CA,Antelope Expansion 3B,62674,AES Distributed Energy,61012,Los Angeles,34.720162,-118.322532,1,SOLAR
586,2023,CA,Apple Campus 2 Fuel Cell,59557,"Apple, Inc",57369,Santa Clara,37.33,-122.01,1,BIOMASS
587,2023,CA,Apple Campus 2 PV,59473,"Apple, Inc",57369,Santa Clara,37.33,-122.01,1,SOLAR
588,2023,CA,Aquamarine,62547,Aquamarine Westside LLC,62049,Kings,36.189722,-119.904166,1,SOLAR
589,2023,CA,Argus Cogen Plant,10684,Searles Valley Minerals Operations Inc.,49968,San Bernardino,35.765,-117.3833,3,COAL
590,2023,CA,Arlington Energy Center II,64481,Arlington Energy Center II,64144,Riverside,33.69088,-114.774944,3,SOLAR
591,2023,CA,Arlington Energy Center III,64564,Arlington Energy Center III,64199,Riverside,33.69088,-114.774944,2,SOLAR
592,2023,CA,Arrache 4006,58445,CD US Solar MT 2 LLC,58440,Los Angeles,34.655,-118.051111,2,SOLAR
593,2023,CA,Arrache 4013,58446,CD US Solar MT 2 LLC,58440,Los Angeles,34.650556,-118.051944,1,SOLAR
594,2023,CA,Arrache 8083,58447,CD US Solar MT 2 LLC,58440,Los Angeles,34.647778,-118.061111,3,SOLAR
595,2023,CA,Aspiration G,59737,AES Distributed Energy,61012,Fresno,36.552186,-120.352481,1,SOLAR
596,2023,CA,Atascadero State Hospital,64523,"Ecoplexus, Inc",58970,San Luis Obispo,35.463333,-120.634011,1,SOLAR
597,2023,CA,Athos Solar Project,63300,"SE Athos I, LLC",62983,Riverside,33.751283,-115.35499,1,SOLAR
598,2023,CA,Atwell Island,58366,SPS Atwell Island LLC,58355,Tulare,35.895,-119.510833,1,SOLAR
599,2023,CA,Atwell Island West Solar,59414,Consolidated Edison Development Inc.,56769,Tulare,35.815,-119.459722,1,SOLAR
600,2023,CA,Avenal Park,57359,Avenal Solar Holdings LLC,56700,Kings,35.989722,-120.11,1,SOLAR
601,2023,CA,Axium Modesto Solar,58039,Axium US Solar Holdings LLC,60898,Stanislaus,37.734167,-120.995556,1,SOLAR
602,2023,CA,Azusa,6449,City of Pasadena - (CA),14534,Los Angeles,34.1548,-117.9093,1,HYDRO
603,2023,CA,B Braun Medical,50200,B Braun Medical Inc,1058,Orange,33.688721,-117.834793,2,GAS
604,2023,CA,BBARWA,65617,"Distributed Solar Development, LLC",64872,San Bernardino,34.267795,-116.815428,2,SOLAR
605,2023,CA,BCE Los Alamitos 1,66533,Bright Canyon Energy,65534,Orange,33.7899,-118.0639,2,SOLAR
606,2023,CA,BCE Los Alamitos 2,66532,Bright Canyon Energy,65534,Orange,33.7841,-118.0509,2,SOLAR
607,2023,CA,BP Carson Refinery,50540,Tesoro Carson Refinery,2696,Los Angeles,33.8153,-118.2358,2,OFSL
608,2023,CA,Badger Creek Limited,10650,WCAC Operating Company,60662,Kern,35.483736,-119.029856,1,GAS
609,2023,CA,Baker,63610,"Hybrid-Electric Building Technologies West Los Angeles 1, LLC",63785,Orange,33.656528,-117.68412,1,OTHF
610,2023,CA,Baker Creek Hydroelectric,59428,"Baker Station Associates, LP",59205,Humboldt,40.526389,-123.725556,2,HYDRO
611,2023,CA,Bakersfield 111,59948,Bakersfield 111 LLC,59711,Kern,35.317551,-118.989894,1,SOLAR
612,2023,CA,Bakersfield College Solar 01,57655,Kern Community College District,56982,Kern,35.411817,-118.96864,1,SOLAR
613,2023,CA,Bakersfield Industrial PV 1,61118,AES Distributed Energy,61012,Kern,35.330032,-118.993119,1,SOLAR
614,2023,CA,Bakersfield PV 1,61117,AES Distributed Energy,61012,Kern,35.324982,-118.981522,1,SOLAR
615,2023,CA,Balch 1,217,Pacific Gas & Electric Co.,14328,Fresno,36.909137,-119.087712,1,HYDRO
616,2023,CA,Balch 2,218,Pacific Gas & Electric Co.,14328,Fresno,36.908907,-119.087556,2,HYDRO
617,2023,CA,Barre Generating Station,56474,Southern California Edison Co,17609,Orange,33.8073,-117.9832,1,GAS
618,2023,CA,"Bayshore Solar A, LLC",60481,AES Distributed Energy,61012,Los Angeles,34.667817,-118.298089,1,SOLAR
619,2023,CA,"Bayshore Solar B, LLC",60474,AES Distributed Energy,61012,Los Angeles,34.678305,-118.302649,1,SOLAR
620,2023,CA,"Bayshore Solar C, LLC",60475,AES Distributed Energy,61012,Los Angeles,34.681338,-118.314087,1,SOLAR
621,2023,CA,Beacon BESS 1,61431,Los Angeles Department of Water & Power,11208,Kern,35.256526,-118.027519,1,OTHF
622,2023,CA,Beacon Solar Plant Site 2,59309,Arevon Asset Management,64172,Kern,35.265833,-117.999167,1,SOLAR
623,2023,CA,Beacon Solar Plant Site 5,59308,Arevon Asset Management,64172,Kern,35.248889,-118.034444,1,SOLAR
624,2023,CA,Bear Creek,50156,"Central Rivers Power US, LLC",64078,Shasta,40.534454,-121.959109,1,HYDRO
625,2023,CA,Bear Creek Solar,58508,Ecos Energy LLC,58135,San Joaquin,38.136389,-121.148889,1,SOLAR
626,2023,CA,Bear Mountain Limited,10649,WCAC Operating Company,60662,Kern,35.419181,-118.926643,1,GAS
627,2023,CA,Bear Valley,457,City of Escondido - (CA),5969,San Diego,33.166246,-117.016566,2,HYDRO
628,2023,CA,Bear Valley Power Plant,56346,Bear Valley Electric Service,17612,San Bernardino,34.2506,-116.9025,7,GAS
629,2023,CA,Beardsley,414,Oakdale&South San Joaquin Irrigation D.,13935,Tuolumne,38.202569,-120.076983,1,HYDRO
630,2023,CA,Beckton Dickenson - San Jose,65203,Bloom Energy,57128,Santa Clara,37.39789,-121.88594,1,GAS
631,2023,CA,Belden,219,Pacific Gas & Electric Co.,14328,Plumas,40.007445,-121.249438,1,HYDRO
632,2023,CA,Beringer,58890,Perpetual Energy Systems,58759,Sonoma,38.510833,-122.479722,1,SOLAR
633,2023,CA,Berrenda Mesa Water District,65073,Tesla Inc.,57313,Kern,35.613342,-119.866763,1,SOLAR
634,2023,CA,Berry Cogen,50170,Berry Petroleum Co,1569,Kern,35.093046,-119.443617,1,GAS
635,2023,CA,Berry Cogen Tanne Hills 18,50622,Berry Petroleum Co,1569,Kern,35.089829,-119.440881,2,GAS
636,2023,CA,Berry NMW Cogens,62176,Berry Petroleum Co,1569,Kern,35.307555,-119.611551,2,GAS
637,2023,CA,Berry Placerita Cogen,52096,Shadow Wolf Energy,65145,Los Angeles,34.38407,-118.494882,2,GAS
638,2023,CA,Bidwell Ditch Project,10880,Mega Renewables,12239,Shasta,40.8014,-121.4481,1,HYDRO
639,2023,CA,Big Bear,64418,"Altus Power America Management, LLC",60281,Los Angeles,34.015287,-118.192851,1,SOLAR
640,2023,CA,Big Creek 1,317,Southern California Edison Co,17609,Fresno,37.2042,-119.2396,4,HYDRO
641,2023,CA,Big Creek 2,318,Southern California Edison Co,17609,Fresno,37.2,-119.3069,4,HYDRO
642,2023,CA,Big Creek 2A,322,Southern California Edison Co,17609,Fresno,37.200062,-119.30681,2,HYDRO
643,2023,CA,Big Creek 3,319,Southern California Edison Co,17609,Fresno,37.148517,-119.386623,5,HYDRO
644,2023,CA,Big Creek 4,320,Southern California Edison Co,17609,Madera,37.139,-119.4898,2,HYDRO
645,2023,CA,Big Creek 8,321,Southern California Edison Co,17609,Fresno,37.2096,-119.3289,2,HYDRO
646,2023,CA,Big Creek Water Works,10282,Big Creek Water Works Ltd,1678,Trinity,40.646733,-123.498008,1,HYDRO
647,2023,CA,Big Pine Creek,391,Los Angeles Department of Water & Power,11208,Inyo,37.142795,-118.324075,1,HYDRO
648,2023,CA,Big Valley Power LLC,10288,Big Valley Power (BVP) LLC,56497,Lassen,41.1325,-121.137222,1,BIOMASS
649,2023,CA,"BigBeau Solar, LLC",64993,"Big Beau Solar, LLC",64424,Kern,34.907041,-118.344077,4,SOLAR
650,2023,CA,Bio-Rad,63189,"Vista Solar, Inc.",62701,Contra Costa,38.022486,-122.273663,1,SOLAR
651,2023,CA,Biola University Hybrid,54296,Biola University,1752,Los Angeles,33.906953,-118.013105,4,GAS
652,2023,CA,Bishop Creek 2,323,Southern California Edison Co,17609,Inyo,37.273581,-118.573339,3,HYDRO
653,2023,CA,Bishop Creek 3,324,Southern California Edison Co,17609,Inyo,37.301962,-118.531957,3,HYDRO
654,2023,CA,Bishop Creek 4,325,Southern California Edison Co,17609,Inyo,37.323035,-118.501714,5,HYDRO
655,2023,CA,Bishop Creek 5,326,Southern California Edison Co,17609,Inyo,37.3344,-118.4797,2,HYDRO
656,2023,CA,Bishop Creek 6,327,Southern California Edison Co,17609,Inyo,37.3499,-118.4628,1,HYDRO
657,2023,CA,Bishop Ranch - BR 1-Y,66799,"Distributed Solar Development, LLC",64872,Contra Costa,37.76217,-121.9579,4,SOLAR
658,2023,CA,Bishop Ranch BR 1-X,67743,Bollinger Canyon Road BR 1-X Solar Project 2020,66355,Contra Costa,37.759761,-121.955956,3,SOLAR
659,2023,CA,Black Butte,7229,City of Santa Clara - (CA),16655,Tehama,39.814905,-122.332335,1,HYDRO
660,2023,CA,Blackjack Solar,66863,South County Packing,65795,Monterey,36.181538,-121.026685,1,SOLAR
661,2023,CA,Blacksand Generating Facility,56090,Bridge Energy LLC,61143,Orange,33.9328,-117.855,3,GAS
662,2023,CA,Blackwell Solar Park,59524,Consolidated Edison Development Inc.,56769,Kern,35.612,-119.845,1,SOLAR
663,2023,CA,Blue Lake Power LLC,10764,Blue Lake Power LLC,56120,Humboldt,40.8786,-123.9942,1,BIOMASS
664,2023,CA,Blue Shld Of Cal- El Dorado Hlls Mtr B,62077,Tesla Inc.,57313,El Dorado,38.650627,-121.074115,1,SOLAR
665,2023,CA,"Blue Skies Solar, LLC",66466,"Blue Skies Solar, LLC",65522,Kern,34.98809,-118.908812,1,SOLAR
666,2023,CA,Blythe Energy,55295,AltaGas Blythe Operations Inc,58453,Riverside,33.6157,-114.6865,2,GAS
667,2023,CA,Blythe Mesa Solar II,65053,"Blythe Mesa Solar II, LLC",64459,Riverside,33.640813,-114.680261,2,SOLAR
668,2023,CA,"Blythe Solar 110, LLC",60093,"Blythe Solar 110, LLC",59842,Riverside,33.68,-114.742,4,SOLAR
669,2023,CA,"Blythe Solar II, LLC",60092,"Blythe Solar II, LLC",59843,Riverside,33.68,-114.73,5,SOLAR
670,2023,CA,"Blythe Solar III, LLC Hybrid",60094,"Blythe Solar III, LLC",59844,Riverside,33.656,-114.742,2,SOLAR
671,2023,CA,"Blythe Solar IV, LLC",60095,"Blythe Solar IV, LLC",59845,Riverside,33.682,-114.768,3,SOLAR
672,2023,CA,Bodega Avenue Solar LLC,65383,Bodega Avenue Solar LLC,64725,Sonoma,38.26147,-122.7373,2,SOLAR
673,2023,CA,Bolthouse S&P and Rowen Farms Solar,56862,MMA WBF Power LP,56105,Los Angeles,34.5644,-117.6933,4,SOLAR
674,2023,CA,Borden Solar Farm,59531,"41MB 8me, LLC",59272,Madera,36.941111,-119.96,1,SOLAR
675,2023,CA,Borrego Springs Energy Storage,60565,SDGE Batteries,60336,San Diego,33.27011,-116.3496,2,OTHF
676,2023,CA,Bottle Rock Power,902,Mayacma Geothermal,65355,Lake,38.8348,-122.7677,1,GEOTHERMAL
677,2023,CA,"Bowerman Power LFG, LLC",59461,"Bowerman Power LFG, LLC",59228,Orange,33.718889,-117.702222,7,BIOMASS
678,2023,CA,Bowman,50546,Nevada Irrigation District,13402,Nevada,39.448352,-120.653417,1,HYDRO
679,2023,CA,Box Canyon Dam,50179,Siskiyou Power Authority,58896,Siskiyou,41.2792,-122.3292,2,HYDRO
680,2023,CA,Brea Expansion Plant,58007,Brea Power II,57384,Orange,33.932022,-117.840233,8,BIOMASS
681,2023,CA,Broadridge Cogen,57580,Broadridge Customer Communications,56917,El Dorado,38.6183,-121.0564,4,GAS
682,2023,CA,Broadway 2 - UC Riverside,64579,MN8 Energy LLC,61944,Riverside,33.97034,-117.33101,1,SOLAR
683,2023,CA,Broadway 3 - UC Merced 1,65186,MN8 Energy LLC,61944,Merced,37.36448,-120.43108,1,SOLAR
684,2023,CA,Broadway 3 - UCSB Lot 38,65187,MN8 Energy LLC,61944,Santa Barbara,34.41974,-119.85637,1,SOLAR
685,2023,CA,Broadway 4 - Target Shafter,65188,MN8 Energy LLC,61944,Kern,35.46331,-119.18912,1,SOLAR
686,2023,CA,Brookfield Tehachapi 1,57962,"Coram California Development, L.P.",60081,Kern,35.008333,-118.241389,1,WIND
687,2023,CA,Bucks Creek,220,Pacific Gas & Electric Co.,14328,Plumas,39.91062,-121.327692,2,HYDRO
688,2023,CA,Buena Vista Energy LLC,56446,"Leeward Asset Management, LLC",50123,Contra Costa,37.805,-121.6672,1,WIND
689,2023,CA,Buidling L,60154,Golden Springs Development Company LLC,57104,Los Angeles,33.912917,-118.041944,1,SOLAR
690,2023,CA,Building F,60151,Golden Springs Development Company LLC,57104,Los Angeles,33.914356,-118.050189,1,SOLAR
691,2023,CA,Building G,60153,Golden Springs Development Company LLC,57104,Los Angeles,33.912917,-118.050561,1,SOLAR
692,2023,CA,Burney Creek,10706,Snow Mountain Hydro LLC,17725,Shasta,40.8579,-121.7225,1,HYDRO
693,2023,CA,Burney Forest Products,10652,"Burney Forest Products, A Joint Venture",62970,Shasta,40.879719,-121.720342,2,BIOMASS
694,2023,CA,Butt Valley,221,Pacific Gas & Electric Co.,14328,Plumas,40.175656,-121.190663,1,HYDRO
695,2023,CA,Butte College Main Campus Solar,57970,Butte-Glenn Community College District,57345,Butte,39.648056,-121.644167,1,SOLAR
696,2023,CA,Byron Highway Solar,64471,"RPCA Solar 3, LLC",64095,Contra Costa,37.847114,-121.617308,1,SOLAR
697,2023,CA,C&H Sugar Plant,58251,C&H Sugar Company Inc,58223,Contra Costa,38.057222,-122.218889,2,OTHF
698,2023,CA,CA - Fresno County - Juvenile Hall,65528,"Forefront Power, LLC",62856,Fresno,36.661113,-119.725975,1,SOLAR
699,2023,CA,CA - Madera USD - Madera South HS,65615,"Forefront Power, LLC",62856,Madera,36.95,-120.05,1,SOLAR
700,2023,CA,CA - Ventura Co CCD - Moorpark College,65365,"Forefront Power, LLC",62856,Ventura,34.299721,-118.833462,1,SOLAR
701,2023,CA,CA Dept of Public Health at Richmond,60428,California PV Energy LLC,58540,Contra Costa,37.92,-122.344,1,SOLAR
702,2023,CA,"CA Flats Solar 130, LLC",60033,"California Flats Solar 130, LLC",61423,San Luis Obispo,35.615573,-120.404352,1,SOLAR
703,2023,CA,"CA Flats Solar 150, LLC",60034,"Arevon Energy, Inc.",61230,San Luis Obispo,35.615573,-120.404352,1,SOLAR
704,2023,CA,CA Institute for Women,64518,"Ecoplexus, Inc",58970,San Bernardino,33.949722,-117.636427,1,SOLAR
705,2023,CA,CA-DGS RFP-Salinas Valley State Prison,65525,"Forefront Power, LLC",62856,Monterey,36.467471,-121.384486,1,SOLAR
706,2023,CA,CA-DGS-California Men's Colony,65523,"Forefront Power, LLC",62856,San Luis Obispo,35.32554,-120.69346,1,SOLAR
707,2023,CA,CA-Ventura Co CCD-Oxnard College Canopy,65447,"Forefront Power, LLC",62856,Ventura,34.165905,-119.156765,1,SOLAR
708,2023,CA,CBS Studio Center,58440,Crestmark Bank,59413,Los Angeles,34.145,-118.390833,6,GAS
709,2023,CA,CBS Television City,58253,"Televison City Studios, LLC.",63330,Los Angeles,34.075,-118.36,4,GAS
710,2023,CA,CCCSD Wastewater Treatment Plnt,57573,Central Contra Costa Sanitary District,56914,Contra Costa,37.9978,-122.0697,1,GAS
711,2023,CA,CD4,63490,CD4,63221,Mono,37.646053,-118.915794,1,GEOTHERMAL
712,2023,CA,CDCR (CA) - Corcoran State Prison,61620,"SunE Corcoran SP Owner, LLC",61225,Kings,36.06502,-119.55756,1,SOLAR
713,2023,CA,CDCR (CA) - Pleasant Valley State Prison,59748,"Team-Solar, Inc.",59512,Fresno,36.137219,-120.224445,1,SOLAR
714,2023,CA,CDCR (CA) - Solano State Prison,61619,"SunE Solano SP Owner, LLC",61224,Solano,38.32272,-121.97062,1,SOLAR
715,2023,CA,CDCR (CA) - Wasco State Prison,61621,"SunE Wasco SP Owner, LLC",61226,Kern,35.60053,-119.40366,1,SOLAR
716,2023,CA,CE Leathers,10631,CalEnergy Operating Corporation,49899,Imperial,33.1779,-115.565,1,GEOTHERMAL
717,2023,CA,CE Turbo LLC,55984,CalEnergy Operating Corporation,49899,Imperial,33.1669,-115.5114,1,GEOTHERMAL
718,2023,CA,CED Avenal,60077,Consolidated Edison Development Inc.,56769,Kings,35.996324,-120.15146,1,SOLAR
719,2023,CA,CED Ducor 1,60078,Consolidated Edison Development Inc.,56769,Tulare,35.856278,-119.068414,1,SOLAR
720,2023,CA,CED Ducor 2,60079,Consolidated Edison Development Inc.,56769,Tulare,35.844167,-119.068069,1,SOLAR
721,2023,CA,CED Ducor 3,60080,Consolidated Edison Development Inc.,56769,Tulare,35.845378,-119.056992,1,SOLAR
722,2023,CA,CED Ducor 4,60081,Consolidated Edison Development Inc.,56769,Tulare,35.850403,-119.026992,1,SOLAR
723,2023,CA,CED West Side Canal Battery Storage,65980,Consolidated Edison Development Inc.,56769,Imperial,32.729364,-115.718589,1,OTHF
724,2023,CA,CES Placerita Power Plant,10677,CES Placerita Inc,178,Los Angeles,34.3801,-118.4999,2,GAS
725,2023,CA,CFW Solar X LLC - Vaughn,62378,Valta Energy,61980,Los Angeles,34.277355,-118.429836,1,SOLAR
726,2023,CA,CID Solar (CA),63204,DG California Solar LLC,62988,Kings,36.140764,-119.566896,1,SOLAR
727,2023,CA,"CID Solar, LLC",59183,Onward Energy,60453,Kings,36.138056,-119.564722,1,SOLAR
728,2023,CA,CP Kelco San Diego Plant,52147,CP Kelco US Inc.,3221,San Diego,32.6947,-117.1436,3,GAS
729,2023,CA,CSD 2 - Heritage High,59130,CleanCapital Holdings,65164,Contra Costa,37.921944,-121.755556,1,SOLAR
730,2023,CA,CSD 2- Freedom High,59129,CleanCapital Holdings,65164,Contra Costa,37.969722,-121.719444,1,SOLAR
731,2023,CA,CSP Los Angeles,65182,"Ecoplexus, Inc",58970,Los Angeles,34.694314,-118.227759,1,SOLAR
732,2023,CA,CST001 McCarthy Fuel Cell,63701,"2016 ESA Project Company, LLC",62150,Santa Clara,37.40553,-121.91676,2,GAS
733,2023,CA,CSU Fresno Solar Project,56813,MMA Fresno Power LP,56028,Fresno,36.809841,-119.741665,2,SOLAR
734,2023,CA,CSU Long Beach,63611,"Hybrid-Electric Building Technologies West Los Angeles 1, LLC",63785,Los Angeles,33.78383,-118.10796,1,OTHF
735,2023,CA,CSU Long Beach Lots 7 & 14,62028,MN8 Energy LLC,61944,Los Angeles,33.78104,-118.11357,1,SOLAR
736,2023,CA,CSU Northridge Plant,58422,"California State University, Northridge",58416,Los Angeles,34.243333,-118.530556,2,SOLAR
737,2023,CA,CSU Sacramento I,67516,BluePath Solar Sacramento I LLC,66238,Sacramento,38.553,-121.422,1,SOLAR
738,2023,CA,CSU San Jose State University,64401,SkyHigh 2 Solar,63432,Santa Clara,37.334,-121.884,1,SOLAR
739,2023,CA,CSUCI Site Authority,50851,CSUCI Site Authority,56835,Ventura,34.161951,-119.047916,2,GAS
740,2023,CA,CSUF Nutwood Solar,60979,MN8 Energy LLC,61944,Orange,33.87912,-117.8887,1,SOLAR
741,2023,CA,CSUF State College,60978,MN8 Energy LLC,61944,Orange,33.87912,-117.8887,1,SOLAR
742,2023,CA,CSUF Trigeneration,58169,California State University at Fullerton,58104,Orange,33.880638,-117.88656,7,GAS
743,2023,CA,CTV Power Purchase Contract Trust,54300,Nextera Energy Resources,64260,Kern,35.0583,-118.3083,2,WIND
744,2023,CA,Cabazon Wind Partners,56011,Shell Wind Energy Inc.,17058,Riverside,33.9172,-116.735,1,WIND
745,2023,CA,Cabrillo College,67179,"Forefront Power, LLC",62856,Santa Cruz,36.987452,-121.922414,1,SOLAR
746,2023,CA,Cabrillo Power I Encina Power Station,302,NRG California Peaker Operations LLC,58847,San Diego,33.140507,-117.333916,5,GAS
747,2023,CA,Cal Flats BESS,63930,"Arevon Energy, Inc.",61230,Monterey,35.866665,-120.329439,1,OTHF
748,2023,CA,Cal State Univ San Bernardino FC01,57544,Southern California Edison Co,17609,San Bernardino,34.185833,-117.324167,1,GAS
749,2023,CA,CalCity Solar 1,63054,"CalCity Solar 1, LLC",62885,Kern,35.141374,-117.965748,1,SOLAR
750,2023,CA,CalPeak Power - Border,55510,"CalPeak Power, LLC",59527,San Diego,32.562448,-116.943869,2,GAS
751,2023,CA,CalPeak Power - Enterprise,55513,"CalPeak Power, LLC",59527,San Diego,33.121943,-117.117441,2,GAS
752,2023,CA,CalPeak Power - Panoche,55508,"CalPeak Power, LLC",59527,Fresno,36.652905,-120.580609,2,GAS
753,2023,CA,CalPeak Power - Vaca Dixon,55499,"CalPeak Power, LLC",59527,Solano,38.398867,-121.923973,2,GAS
754,2023,CA,CalRenew-1,56768,CalRenew-1 LLC,55961,Fresno,36.7575,-120.3658,1,SOLAR
755,2023,CA,CalTech - Pasadena,65202,Bloom Energy,57128,Los Angeles,34.138719,-118.12833,1,GAS
756,2023,CA,CalTech - Pasadena (PPA),65193,Bloom Energy 2009 PPA,56778,Los Angeles,34.139368,-118.121488,1,GAS
757,2023,CA,CalTech - Pasadena Wilson Ave,65361,Bloom Energy,57128,Los Angeles,34.13818,-118.12841,1,GAS
758,2023,CA,Calabasas Gas to Energy Facility,57163,Los Angeles County Sanitation,11217,Los Angeles,34.1511,-118.7236,2,BIOMASS
759,2023,CA,Calibrant Bakersfield LLC,65564,"Bay4 Energy Services, LLC",64395,Kern,35.442085,-119.093214,1,SOLAR
760,2023,CA,California City,63516,MN8 Energy LLC,61944,Kern,35.157,-117.981,1,SOLAR
761,2023,CA,California Institute of Technology,10262,California Institute-Technology,2848,Los Angeles,34.138467,-118.1256,2,GAS
762,2023,CA,California PV Energy at ISD WWTP,59283,California PV Energy LLC,58540,Contra Costa,38.001111,-121.703889,1,SOLAR
763,2023,CA,California State Univ at Channel Islands,64403,SkyHigh 2 Solar,63432,Ventura,34.162058,-119.043375,1,SOLAR
764,2023,CA,California Valley Solar Ranch,57439,Clearway Energy Operating LLC,64536,San Luis Obispo,35.323739,-119.91663,5,SOLAR
765,2023,CA,Calipatria Solar Farm,59088,Southern Power Co,17650,Imperial,33.165833,-115.532222,1,SOLAR
766,2023,CA,Calipatria State Prison,64521,"Ecoplexus, Inc",58970,Imperial,33.163055,-115.484805,1,SOLAR
767,2023,CA,Calistoga Power Plant,50066,Geysers Power Co LLC,7160,Lake,38.7879,-122.7434,2,GEOTHERMAL
768,2023,CA,"Calpine Gilroy Cogen, LP",10034,Calpine Gilroy Cogen LP,3028,Santa Clara,37.0001,-121.5367,1,GAS
769,2023,CA,Calpine Sutter Energy Center,55112,Calpine Corp-Sutter,22650,Sutter,39.053139,-121.695873,2,GAS
770,2023,CA,Caltech Central,57460,Bloom Energy 2009 PPA,56778,Los Angeles,34.1358,-118.1267,11,GAS
771,2023,CA,Camanche,537,East Bay Municipal Util Dist,5571,San Joaquin,38.2268,-121.0245,3,HYDRO
772,2023,CA,Cameron Ridge LLC,10586,Terra-Gen Operating Co-Wind,2770,Kern,35.075,-118.3158,1,WIND
773,2023,CA,Camino,430,Sacramento Municipal Util Dist,16534,El Dorado,38.82881,-120.537089,2,HYDRO
774,2023,CA,Campbell Power Plant,7552,Sacramento Municipal Util Dist,16534,Sacramento,38.511,-121.4735,1,GAS
775,2023,CA,Campo Verde Solar,58467,Southern Power Co,17650,Imperial,32.753333,-115.726389,1,SOLAR
776,2023,CA,"Canal Energy S23, LLC",65740,"Canal Energy S23, LLC",64948,Kings,36.1761,-119.5604,1,SOLAR
777,2023,CA,Cantua Solar Station,57522,Pacific Gas & Electric Co.,14328,Fresno,36.425085,-120.343543,1,SOLAR
778,2023,CA,Canyon Crest Academy,60568,SDGE Batteries,60336,San Diego,32.95907,-117.191622,1,OTHF
779,2023,CA,Canyon Power Plant,57027,City of Anaheim - (CA),590,Orange,33.858056,-117.861667,4,GAS
780,2023,CA,Caribou 1,222,Pacific Gas & Electric Co.,14328,Plumas,40.085476,-121.148241,3,HYDRO
781,2023,CA,Caribou 2,223,Pacific Gas & Electric Co.,14328,Plumas,40.085997,-121.149373,2,HYDRO
782,2023,CA,Carson Cogeneration Company,10169,Carson Cogeneration Co,3084,Los Angeles,33.8759,-118.2491,1,GAS
783,2023,CA,Carson Power Plant,7527,Sacramento Municipal Util Dist,16534,Sacramento,38.445681,-121.462387,2,GAS
784,2023,CA,Cascade Solar,58590,Cascade Solar LLC,58546,San Bernardino,34.157222,-116.234444,1,SOLAR
785,2023,CA,"Case Vander Eyk, Jr Dairy Solar",67073,Bravo REC Management LLC,65949,Tulare,35.972788,-119.394323,1,SOLAR
786,2023,CA,Castaic,392,Los Angeles Department of Water & Power,11208,Los Angeles,34.587237,-118.656638,7,HYDRO
787,2023,CA,Castaic Lake Phase II,63385,MN8 Energy LLC,61944,Los Angeles,34.433332,-118.510837,1,SOLAR
788,2023,CA,Castle Rock Vineyards,57870,Castle Rock Cooling,57213,Tulare,35.801111,-119.110556,1,SOLAR
789,2023,CA,Castor Solar,60277,ZGlobal Inc,60059,Kern,35.211044,-119.387258,1,SOLAR
790,2023,CA,Catalina Express,64836,"Altus Power America Management, LLC",60281,Los Angeles,33.749947,-118.278469,1,SOLAR
791,2023,CA,"Catalina Solar 2, LLC",59334,Onward Energy,60453,Kern,34.812222,-118.352778,1,SOLAR
792,2023,CA,Catalina Solar LLC,57708,"EDF Renewable Asset Holdings, Inc.",57170,Kern,34.938261,-118.334492,1,SOLAR
793,2023,CA,Cawelo Water District Solar,67000,"Scooby Solar, LLC",65913,Kern,35.049,-119.1812,1,SOLAR
794,2023,CA,Center Generating Station,56475,Southern California Edison Co,17609,Los Angeles,33.9296,-118.1046,1,GAS
795,2023,CA,Centerville PH,224,Pacific Gas & Electric Co.,14328,Butte,39.788877,-121.657383,2,HYDRO
796,2023,CA,Centinela Solar Energy,58430,"Arevon Energy, Inc.",61230,Imperial,32.686944,-115.647778,6,SOLAR
797,2023,CA,Centinela State Prison,64519,"Ecoplexus, Inc",58970,Imperial,32.825833,-115.782916,1,SOLAR
798,2023,CA,Central 40,63940,"Central 40, LLC",63606,Stanislaus,37.246,-121.104,1,SOLAR
799,2023,CA,Central Antelope Dry Ranch B LLC,60281,"Central Antelope Dry Ranch B, LLC",63250,Los Angeles,34.705549,-118.301417,1,SOLAR
800,2023,CA,Central Antelope Dry Ranch C,59963,AES Distributed Energy,61012,Los Angeles,34.720499,-118.30046,1,SOLAR
801,2023,CA,Central CA Fuel Cell 1,63439,Central CA Fuel Cell 1,65297,Tulare,36.18347,-119.374348,1,GAS
802,2023,CA,Central Utilities Plant LAX 2,58258,LAX Airport,10810,Los Angeles,33.943889,-118.404167,2,GAS
803,2023,CA,Central Valley Ag Power,58978,Central Valley Ag Power LLC,58839,Stanislaus,37.719722,-120.898611,1,BIOMASS
804,2023,CA,Century Generating Facility,55934,Colton Power LP,4382,San Bernardino,34.0606,-117.3533,4,GAS
805,2023,CA,Chaffey College Rancho Cucamonga Campus,62150,Chaffey Community College District,61686,San Bernardino,34.148139,-117.570404,1,SOLAR
806,2023,CA,Chalk Cliff Limited,50003,WCAC Operating Company,60662,Kern,35.0968,-119.4299,1,GAS
807,2023,CA,Chambers 4 - Eastvale DCA2,65255,MN8 Energy LLC,61944,Riverside,33.99347,-117.55391,1,SOLAR
808,2023,CA,Chambers 4 - Eastvale LGB3,65238,MN8 Energy LLC,61944,Riverside,33.99848,-117.55289,1,SOLAR
809,2023,CA,Chambers 4 - Redland LGB4,65251,MN8 Energy LLC,61944,San Bernardino,34.08041,-117.20138,1,SOLAR
810,2023,CA,Chambers 4 - Rialto LGB8,65253,MN8 Energy LLC,61944,San Bernardino,34.12937,-117.40554,1,SOLAR
811,2023,CA,Chambers 4 - Riverside LGB6,65252,MN8 Energy LLC,61944,Riverside,33.88102,-117.30036,1,SOLAR
812,2023,CA,Chambers 4 - Sacramento SMF1,65254,MN8 Energy LLC,61944,Sacramento,38.68251,-121.57434,1,SOLAR
813,2023,CA,Chambers 4 - San Bernardino SNA7,65256,MN8 Energy LLC,61944,San Bernardino,34.07752,-117.27257,1,SOLAR
814,2023,CA,Chestnut,63849,"Chestnut Westside, LLC",63526,Kings,36.160164,-119.904936,2,SOLAR
815,2023,CA,Chevron - Lost Hills Hybrid,63545,MN8 Energy LLC,61944,Kern,35.62,-119.69,1,SOLAR
816,2023,CA,Chicago Park,412,Nevada Irrigation District,13402,Nevada,39.177903,-120.890856,1,HYDRO
817,2023,CA,Childrens Hospital,10175,DTE San Diego COGEN Inc.,3476,San Diego,32.7992,-117.1517,5,GAS
818,2023,CA,Chili Bar,225,Sacramento Municipal Util Dist,16534,El Dorado,38.771764,-120.813239,1,HYDRO
819,2023,CA,Chowchilla II,56185,California Power Holdings LLC,55784,Madera,37.1073,-120.2485,16,GAS
820,2023,CA,Chuckawalla Solar,58506,"Altus Power America Management, LLC",60281,Riverside,33.568333,-114.918056,1,SOLAR
821,2023,CA,Chuckawalla Valley State Prison,57011,SunE CPA CDC1 LLC,56302,Riverside,33.565329,-114.903629,1,SOLAR
822,2023,CA,Chula Vista Energy Center,55540,"Wellhead Services, Inc",20323,San Diego,32.591667,-117.058611,2,GAS
823,2023,CA,Citizen B,59738,AES Distributed Energy,61012,Fresno,36.723806,-120.432139,1,SOLAR
824,2023,CA,Citizens Imperial Solar,62052,Citizens Enterprises Corporation,58871,Imperial,33.191661,-115.433783,1,SOLAR
825,2023,CA,City of Hayward WWTP,58525,City of Hayward,58500,Alameda,37.633526,-122.139717,2,BIOMASS
826,2023,CA,City of Madera WWTP,57682,"SunE GIL1, LLC",57006,Madera,36.9408,-120.1572,1,SOLAR
827,2023,CA,City of Palo Alto,57714,City of Palo Alto,57033,Santa Clara,37.4383,-122.1094,4,GAS
828,2023,CA,City of Rosamond (CA),66667,Standard Solar,60531,Kern,34.835677,-118.146832,1,SOLAR
829,2023,CA,City of Soledad Water Reclamation,59329,"Foundation HA Energy Generation, LLC",56930,Monterey,36.421111,-121.340278,1,WIND
830,2023,CA,City of Tulare Water Facility,59395,City of Tulare Water Pollution Control,59173,Tulare,36.185,-119.375,4,SOLAR
831,2023,CA,Civic Center,10623,Los Angeles County,11216,Los Angeles,34.0564,-118.2436,4,GAS
832,2023,CA,Clear Lake Hydro Project,50128,Yolo County Flood Control WCD,22079,Lake,38.923556,-122.56668,1,HYDRO
833,2023,CA,Clearwater Power Plant,56356,City of Riverside - (CA),16088,Riverside,33.8912,-117.6085,2,GAS
834,2023,CA,Cloverdale Solar Center,60813,"Adapture Renewables, Inc.",60496,Sonoma,38.769581,-123.020724,1,SOLAR
835,2023,CA,Cloverdale Solar I,58949,"Altus Power America Management, LLC",60281,Sonoma,38.773056,-123.017778,1,SOLAR
836,2023,CA,Clovis East High School,66469,Tesla Inc.,57313,Fresno,36.799669,-119.640598,1,SOLAR
837,2023,CA,Clovis High School,66468,Tesla Inc.,57313,Fresno,36.817101,-119.681918,1,SOLAR
838,2023,CA,Clovis North High School,66470,Tesla Inc.,57313,Fresno,36.890115,-119.736674,1,SOLAR
839,2023,CA,Coachella,6060,Imperial Irrigation District,9216,Riverside,33.6758,-116.1714,4,GAS
840,2023,CA,Coachella Hills Wind,64323,Terra-Gen Operating Co-Wind,2770,Riverside,33.9077,-116.5797,1,WIND
841,2023,CA,Coalinga 25D Cogen,52086,Chevron USA Inc,54713,Fresno,36.1556,-120.3972,4,GAS
842,2023,CA,Coalinga 6C Cogen,52083,Chevron USA Inc,54713,Fresno,36.2097,-120.3828,2,GAS
843,2023,CA,Coalinga Cogeneration,50131,Coalinga Cogeneration Co,3852,Fresno,36.1807,-120.3885,1,GAS
844,2023,CA,Coalinga Cogeneration Facility,50750,Aera Energy LLC-Coalinga,23005,Fresno,36.170317,-120.364084,2,GAS
845,2023,CA,Cold Canyon 1,58379,Toro Energy of California SLO,58366,San Luis Obispo,35.186667,-120.599444,1,BIOMASS
846,2023,CA,Coleman PH,227,Pacific Gas & Electric Co.,14328,Shasta,40.404645,-122.121904,1,HYDRO
847,2023,CA,Colgate,454,Yuba County Water Agency,21140,Yuba,39.330833,-121.191666,2,HYDRO
848,2023,CA,Colgreen North Shore Solar Farm,60825,"Sunpin Holdings, LLC",60495,Riverside,33.540124,-115.974771,1,SOLAR
849,2023,CA,Collierville Powerhouse,54555,Northern California Power Agny,40613,Calaveras,38.144636,-120.380497,2,HYDRO
850,2023,CA,Collins Pine Project,10661,Collins Pine Co,3953,Plumas,40.303422,-121.244431,1,BIOMASS
851,2023,CA,Colon PV,59798,Los Angeles Department of Water & Power,11208,Los Angeles,33.792694,-118.252407,1,SOLAR
852,2023,CA,"Colton Solar One, LLC",59597,"Colton Solar One, LLC",59345,San Bernardino,34.093333,-117.319444,1,SOLAR
853,2023,CA,"Colton Solar Two, LLC",59598,"Colton Solar Two, LLC",59346,San Bernardino,34.042222,-117.361667,1,SOLAR
854,2023,CA,"Columbia Solar Energy, LLC",59979,Columbia Solar Energy LLC,59736,Contra Costa,38.019671,-121.86506,1,SOLAR
855,2023,CA,Colusa Generating Station,56532,Pacific Gas & Electric Co.,14328,Colusa,39.3661,-122.27,2,GAS
856,2023,CA,Combie South,846,Nevada Irrigation District,13402,Nevada,39.0096,-121.0591,3,HYDRO
857,2023,CA,Comcast - Universal City,65211,Bloom Energy,57128,Los Angeles,34.137717,-118.36082,1,GAS
858,2023,CA,Community Solar 1,58545,Community Solar I,64635,Imperial,32.982778,-115.481944,1,SOLAR
859,2023,CA,Control Gorge,393,Los Angeles Department of Water & Power,11208,Inyo,37.437921,-118.556988,1,HYDRO
860,2023,CA,Copco 1,294,PacifiCorp,14354,Siskiyou,41.978914,-122.335317,2,HYDRO
861,2023,CA,Copco 2,295,PacifiCorp,14354,Siskiyou,41.975716,-122.358127,2,HYDRO
862,2023,CA,Coram Energy LLC,54299,Nextera Energy Resources,64260,Kern,35.075,-118.3417,1,WIND
863,2023,CA,Coram Energy LLC (ECT),54298,Nextera Energy Resources,64260,Kern,35.0583,-118.3417,1,WIND
864,2023,CA,Coram Tehachapi,54750,Nextera Energy Resources,64260,Kern,35.0663,-118.339444,1,WIND
865,2023,CA,Corcoran,60450,Terraform Arcadia,63249,Kings,36.102307,-119.566516,1,SOLAR
866,2023,CA,Corcoran Solar,58374,Consolidated Edison Development Inc.,56769,Kings,36.138333,-119.573333,1,SOLAR
867,2023,CA,Corcoran Solar 2,59413,Consolidated Edison Development Inc.,56769,Kings,36.141944,-119.581667,1,SOLAR
868,2023,CA,Corcoran Solar 3,59900,Consolidated Edison Development Inc.,56769,Kings,36.15042,-119.58542,1,SOLAR
869,2023,CA,"CoreSite Real Estate 1656 McCarthy, L.P.",61475,"CoreSite Real Estate 1656 McCarthy, L.P.",61089,Santa Clara,37.405727,-121.916248,5,OIL
870,2023,CA,"CoreSite Real Estate 2901 Coronado, L.P.",61476,"CoreSite Real Estate 2901 Coronado, L.P.",61086,Santa Clara,37.375089,-121.971728,5,OIL
871,2023,CA,"CoreSite Real Estate 2972 Stender, L.P.",61464,"CoreSite Real Estate 2972 Stender, L.P.",61078,Santa Clara,37.376248,-121.970706,6,OIL
872,2023,CA,"CoreSite Real Estate 3032 Coronado, L.P.",61482,"CoreSite Real Estate 3032 Coronado, L.P.",61087,Santa Clara,37.376181,-121.973097,13,OIL
873,2023,CA,CoreSite Real Estate 55 S. Market Street,61474,"CoreSite Real Estate 55 S. Market Street, LLC",61088,Santa Clara,37.334151,-121.891622,4,OIL
874,2023,CA,Corona,480,Metropolitan Water District of S CA,12397,Riverside,33.85895,-117.6106,1,HYDRO
875,2023,CA,Coronal Lost Hills,59638,"Arevon Energy, Inc.",61230,Kern,35.726667,-119.905833,1,SOLAR
876,2023,CA,Coronus Adelanto West 1,59536,"Clean Focus Yield, LLC",65305,San Bernardino,34.548056,-117.464444,1,SOLAR
877,2023,CA,Coronus Adelanto West 2,59537,"Clean Focus Yield, LLC",65305,San Bernardino,34.548056,-117.464444,1,SOLAR
878,2023,CA,Coso Battery Storage,63943,Arevon Asset Management,64172,Inyo,36.006945,-117.810636,1,OTHF
879,2023,CA,Coso Energy Developers,10875,Coso Operating Co LLC,4397,Inyo,36.0019,-117.7886,3,GEOTHERMAL
880,2023,CA,Coso Finance Partners,10873,Coso Operating Co LLC,4397,Inyo,36.0372,-117.7981,3,GEOTHERMAL
881,2023,CA,Coso Power Developers,10874,Coso Operating Co LLC,4397,Inyo,36.0192,-117.7917,3,GEOTHERMAL
882,2023,CA,Cosumnes Power Plant,55970,Sacramento Municipal Util Dist,16534,Sacramento,38.338475,-121.123978,2,OFSL
883,2023,CA,Cottonwood,394,Los Angeles Department of Water & Power,11208,Inyo,36.443421,-118.04389,2,HYDRO
884,2023,CA,"Cottonwood Solar, LLC (City of Corcoran)",59087,Onward Energy,60453,Kings,36.134444,-119.554444,1,SOLAR
885,2023,CA,"Cottonwood Solar, LLC (Goose Lake)",59086,Onward Energy,60453,Kern,35.593611,-119.58,1,SOLAR
886,2023,CA,"Cottonwood Solar, LLC Cottonwood Carport",59703,Onward Energy,60453,Marin,38.129759,-122.568158,1,SOLAR
887,2023,CA,County of San Diego COC Hybrid,64601,"Solar Star California LXXVIII, LLC",62854,San Diego,32.833645,-117.131123,2,SOLAR
888,2023,CA,County of San Diego SBRC,62242,MN8 Energy LLC,61944,San Diego,32.63266,-117.07775,1,SOLAR
889,2023,CA,Covanta Delano Energy,10840,Clean Energy Systems Delano,64894,Kern,35.7144,-119.2337,2,BIOMASS
890,2023,CA,Covanta Mendota,10837,Clean Energy Systems Mendota,64893,Fresno,36.755896,-120.365422,1,BIOMASS
891,2023,CA,Covanta Stanislaus Energy,50632,Covanta Stanislaus Inc,4498,Stanislaus,37.3853,-121.141,2,BIOMASS
892,2023,CA,Cove Hydroelectric,10707,Snow Mountain Hydro LLC,17725,Shasta,40.8713,-121.9487,1,HYDRO
893,2023,CA,Cow Creek,229,Pacific Gas & Electric Co.,14328,Shasta,40.570817,-122.02093,2,HYDRO
894,2023,CA,Coyote Creek,483,Metropolitan Water District of S CA,12397,Orange,33.92493,-117.95517,1,HYDRO
895,2023,CA,Crafton Hills College Solar Farm,58170,San Bernardino Comm College Dist,58140,San Bernardino,34.043056,-117.098889,1,SOLAR
896,2023,CA,Creed Energy Center,55625,Creed Energy Center LLC,49971,Solano,38.242158,-121.854722,1,GAS
897,2023,CA,Cresta,231,Pacific Gas & Electric Co.,14328,Butte,39.825907,-121.409687,2,HYDRO
898,2023,CA,Crimson,65140,RE Crimson LLC,64513,Riverside,33.57345,-114.814541,2,OTHF
899,2023,CA,Crockett Cogen Project,55084,Crockett Cogeneration,4464,Contra Costa,38.0569,-122.2161,1,GAS
900,2023,CA,Crown Cooling Facility,58527,Five Crowns Inc,58501,Imperial,32.967222,-115.5325,1,SOLAR
901,2023,CA,Crystal Farms Local Solar,66714,"Crystal Farms Local Solar, LLC",65719,Fresno,36.633807,-120.177104,1,SOLAR
902,2023,CA,"Cuyama Solar, LLC",60043,"Cuyama Solar, LLC",61112,Santa Barbara,34.901,-119.596,1,SOLAR
903,2023,CA,Cuyamaca Peak Energy,55512,San Diego Gas & Electric Co,16609,San Diego,32.796491,-116.972071,2,GAS
904,2023,CA,Cymric 31X Cogen,52081,Chevron USA Inc,54713,Kern,35.3639,-119.6592,2,GAS
905,2023,CA,Cymric 36W Cogen,52104,Chevron USA Inc,54713,Kern,35.3633,-119.6756,4,GAS
906,2023,CA,Cymric 6Z Cogen,52082,Chevron USA Inc,54713,Kern,35.346102,-119.643431,2,GAS
907,2023,CA,D'Arrigo Brothers - Phase 4,63486,CalCom Energy,63226,Monterey,36.616,-121.636,2,SOLAR
908,2023,CA,DATS,63612,"Hybrid-Electric Building Technologies West Los Angeles 1, LLC",63785,Orange,33.70731,-117.89108,1,OTHF
909,2023,CA,DESI-1 Battery Energy Storage Facility,60699,Southern California Edison Co,17609,Orange,33.799248,-117.873371,1,OTHF
910,2023,CA,DESI-2 Battery Storage Facility,62460,Southern California Edison Co,17609,Orange,33.7357,-117.915286,1,OTHF
911,2023,CA,DGS Central California Womens Facility,63419,"Forefront Power, LLC",62856,Madera,37.089701,-120.149966,1,SOLAR
912,2023,CA,DGS Central Utility Plant,58593,State of CA DGS BPM,58548,Sacramento,38.573889,-121.501389,3,GAS
913,2023,CA,DGS Valley State Prison,63947,"Forefront Power, LLC",62856,Madera,37.10117,-120.153072,1,SOLAR
914,2023,CA,DGS Wasco State Prison,63418,"Forefront Power, LLC",62856,Kern,35.593903,-119.407215,1,SOLAR
915,2023,CA,DSH (CA) - Coalinga State Hospital,59746,"Team-Solar, Inc.",59512,Fresno,36.13726,-120.218453,1,SOLAR
916,2023,CA,DTE Stockton,54238,DTE Stockton LLC,56652,San Joaquin,37.943633,-121.330433,1,BIOMASS
917,2023,CA,Daggett 2,64851,Daggett Solar Power 2 LLC,64364,San Bernardino,34.860918,-116.855281,2,SOLAR
918,2023,CA,Daggett 3,64852,Daggett Solar Power 3 LLC,64365,San Bernardino,34.860918,-116.855281,2,SOLAR
919,2023,CA,Danell Bros Inc,65364,"Renewable Solar, Inc",64698,Kings,36.267574,-119.631577,1,SOLAR
920,2023,CA,De Sabla,232,Pacific Gas & Electric Co.,14328,Butte,39.869265,-121.631819,1,HYDRO
921,2023,CA,Deadwood Creek,7507,"Hydro Sierra Energy, LLC",61958,Yuba,39.53,-121.095833,1,HYDRO
922,2023,CA,Dedeaux,63674,VS Dedeaux LLC,63393,Los Angeles,34.013113,-118.241894,1,SOLAR
923,2023,CA,Deer Creek 2,64861,Greenbacker Renewable Energy Corporation,60025,El Dorado,38.628,-120.984,1,SOLAR
924,2023,CA,Deer Creek PH,233,Pacific Gas & Electric Co.,14328,Nevada,39.29807,-120.8443,1,HYDRO
925,2023,CA,Del Ranch Company,10632,CalEnergy Operating Corporation,49899,Imperial,33.1646,-115.616,1,GEOTHERMAL
926,2023,CA,"Delano Energy Center, LLC",58122,"Wellhead Services, Inc",20323,Tulare,35.790864,-119.294469,1,GAS
927,2023,CA,Delano Land 1,61116,AES Distributed Energy,61012,Kern,35.761217,-119.344408,1,SOLAR
928,2023,CA,Delta Electronics Fremont,67853,Delta Electronics (Americas) Ltd,66425,Alameda,37.48963,-121.949,2,SOLAR
929,2023,CA,"Delta Energy Center, LLC",55333,Delta Energy Center LLC,5030,Contra Costa,38.0169,-121.8439,3,GAS
930,2023,CA,Department of Justice,64517,"Ecoplexus, Inc",58970,Sacramento,38.548056,-121.44855,1,SOLAR
931,2023,CA,Depot Park Solar System,58119,Depot Park Solar Farm,62034,Sacramento,38.515,-121.398333,1,SOLAR
932,2023,CA,Dept of General Services -FTB,60861,"California PV Energy 2, LLC",60518,Sacramento,38.565,-121.343,1,SOLAR
933,2023,CA,Desert Green Solar Farm LLC,57959,Invenergy Services LLC,49893,San Diego,33.27055,-116.34805,1,SOLAR
934,2023,CA,Desert Harvest II LLC,64103,Desert Harvest II LLC,63731,Riverside,33.8,-115.38,2,SOLAR
935,2023,CA,"Desert Harvest, LLC",62177,"Desert Harvest, LLC",61709,Riverside,33.8,-115.38,1,SOLAR
936,2023,CA,Desert Hot Springs Solar,58514,Consolidated Edison Solutions Inc.,57365,Riverside,33.923056,-116.53,1,SOLAR
937,2023,CA,Desert Peak Energy Storage I,65987,"Desert Peak Energy Storage I, LLC",65168,Riverside,33.9311,-116.5719,1,OTHF
938,2023,CA,Desert Peak Energy Storage II,65988,"Desert Peak Energy Storage II, LLC",65169,Riverside,33.9311,-116.5719,1,OTHF
939,2023,CA,"Desert Sunlight 250, LLC",58542,"NextEra Energy Desert Sunlight 250, LLC",58290,Riverside,33.8055,-115.3947,9,SOLAR
